City,Cloudiness,Country,Date,Humidity,Lat,Lng,Max Temp,Wind Speed
Busselton,62,AU,1630120123,63,-33.65,115.3333,61.05,9.55
Cape Town,72,ZA,1630119942,93,-33.9258,18.4232,44.89,4.0
Nikolskoye,61,RU,1630120123,93,59.7035,30.7861,57.09,5.55
Chui,1,UY,1630120124,81,-33.6971,-53.4616,47.55,5.55
Hilo,90,US,1630120124,75,19.7297,-155.09,82.27,5.75
Bethel,75,US,1630120124,90,41.3712,-73.414,79.48,0.0
Saint George,1,US,1630119840,13,37.1041,-113.5841,97.39,3.0
Esperance,59,AU,1630120125,73,-33.8667,121.9,57.04,20.69
Punta Arenas,75,CL,1630120125,87,-53.15,-70.9167,37.51,6.91
Ostrovnoy,69,RU,1630120125,77,68.0531,39.5131,47.62,16.64
Dikson,42,RU,1630120126,77,73.5069,80.5464,39.43,3.44
Beidao,100,CN,1630119918,67,34.5686,105.8933,69.94,3.71
Vaini,40,TO,1630120126,73,-21.2,-175.2,71.76,6.91
Jacksonville,75,US,1630119939,90,30.3322,-81.6556,82.98,6.91
Yellowknife,60,CA,1630120127,57,62.456,-114.3525,62.47,5.21
Oddur,15,SO,1630120127,74,4.1213,43.8894,67.84,14.61
Cidreira,6,BR,1630120128,80,-30.1811,-50.2056,56.79,9.82
Puerto Ayora,100,EC,1630120128,90,-0.7393,-90.3518,67.55,1.99
Mar del Plata,100,AR,1630119876,83,-38.0023,-57.5575,46.4,10.11
Hermanus,93,ZA,1630120128,69,-34.4187,19.2345,46.8,19.19
Dunedin,100,NZ,1630119918,85,-45.8742,170.5036,47.8,8.66
Tasiilaq,100,GL,1630120129,99,65.6145,-37.6368,46.56,5.03
Alofi,38,NU,1630119865,60,-19.0595,-169.9187,70.9,18.21
Dingle,99,PH,1630120129,70,10.9995,122.6711,86.81,6.35
Zhoucheng,100,CN,1630120129,73,35.9122,116.3117,74.08,5.12
Pakenham,5,AU,1630120130,41,-38.0667,145.4833,66.74,5.99
Kananga,100,CD,1630120130,77,-5.8958,22.4178,73.11,2.26
Ushuaia,75,AR,1630120106,75,-54.8,-68.3,38.86,13.8
Champerico,82,GT,1630120130,81,14.3,-91.9167,82.35,5.19
Saryagash,0,KZ,1630120131,16,41.4511,69.1701,78.76,4.68
Buraidah,0,SA,1630120131,16,26.326,43.975,83.66,4.23
Bredasdorp,66,ZA,1630120131,87,-34.5322,20.0403,46.27,11.5
Tuktoyaktuk,100,CA,1630120132,87,69.4541,-133.0374,44.49,15.14
Medina,0,SA,1630119843,9,24.4686,39.6142,90.03,4.61
Barranca,51,PE,1630120132,86,-10.75,-77.7667,61.09,7.25
Upernavik,96,GL,1630120133,93,72.7868,-56.1549,38.61,8.28
Narsaq,41,GL,1630120133,65,60.9167,-46.05,41.22,2.93
Rikitea,7,PF,1630120133,81,-23.1203,-134.9692,73.9,18.41
Provideniya,100,RU,1630120134,87,64.3833,-173.3,47.07,19.19
Brigantine,75,US,1630120045,91,39.4101,-74.3646,79.02,3.44
Butaritari,18,KI,1630120134,74,3.0707,172.7902,82.98,9.15
São João da Barra,63,BR,1630119910,88,-21.6403,-41.0511,69.35,9.71
Geraldton,2,AU,1630120135,63,-28.7667,114.6,64.81,12.66
Pangkalanbuun,43,ID,1630120135,67,-2.6833,111.6167,85.33,6.33
Saskylakh,100,RU,1630120135,82,71.9167,114.0833,37.17,19.89
Pangody,76,RU,1630120136,65,65.85,74.4859,43.83,13.15
San Patricio,49,US,1630120136,71,28.017,-97.5169,84.06,7.99
Hithadhoo,32,MV,1630119938,71,-0.6,73.0833,82.87,13.15
Port Elizabeth,40,ZA,1630119964,58,-33.918,25.5701,42.1,14.16
Barrow,90,US,1630120037,87,71.2906,-156.7887,39.22,13.8
Marsaxlokk,0,MT,1630120137,83,35.8419,14.5431,79.09,6.91
Port Alfred,81,ZA,1630120137,63,-33.5906,26.891,50.49,19.06
Gweta,15,BW,1630120137,31,-20.1833,25.2333,65.97,5.26
Gold Coast,0,AU,1630120050,34,-28.0,153.4333,78.24,3.0
Balud,98,PH,1630120138,70,10.1476,123.6953,85.21,5.23
Mackay,8,AU,1630120138,69,-21.15,149.2,77.04,8.25
Rome,1,US,1630120138,78,43.2128,-75.4557,71.46,3.44
Šalčininkai,98,LT,1630120139,94,54.3,25.3833,53.69,4.63
Saint-Philippe,97,RE,1630120139,92,-21.3585,55.7679,69.39,21.16
Les Cayes,91,HT,1630120139,83,18.2,-73.75,77.99,3.29
Jamestown,1,US,1630120091,95,42.097,-79.2353,72.72,1.01
Hobart,75,AU,1630120140,70,-42.8794,147.3294,53.26,1.01
Vanimo,15,PG,1630120140,63,-2.6741,141.3028,86.85,9.26
Kapaa,1,US,1630120140,67,22.0752,-159.319,84.18,1.99
Khani,0,GE,1630120141,59,41.9563,42.9566,62.17,5.86
Ancud,68,CL,1630120141,88,-41.8697,-73.8203,46.42,8.12
Rocha,1,UY,1630120141,82,-34.4833,-54.3333,41.09,3.31
Kohat,0,PK,1630119959,57,33.582,71.4493,80.67,6.85
Zhigansk,99,RU,1630120142,68,66.7697,123.3711,43.11,6.46
Udachny,90,RU,1630120142,54,66.4167,112.4,60.39,21.85
Tigil',98,RU,1630120142,79,57.8,158.6667,61.99,4.03
Bluff,92,NZ,1630120143,78,-46.6,168.3333,50.81,10.38
Havre-St-Pierre,4,CA,1630120143,65,50.2334,-63.5986,53.8,12.88
Albany,96,US,1630119930,72,42.6001,-73.9662,72.3,4.18
Paamiut,20,GL,1630120143,77,61.994,-49.6678,44.1,2.98
Qaanaaq,100,GL,1630120144,98,77.484,-69.3632,35.96,2.89
Sobolevo,100,RU,1630120144,87,54.4299,31.8996,56.64,9.24
Atuona,18,PF,1630120144,73,-9.8,-139.0333,78.28,18.01
Huarmey,91,PE,1630120145,86,-10.0681,-78.1522,62.74,9.53
Castro,100,BR,1630120145,98,-24.7911,-50.0119,53.69,7.65
Henties Bay,0,NA,1630120145,74,-22.116,14.2845,46.85,13.94
Safi,0,MA,1630120146,84,32.2994,-9.2372,67.77,10.42
Lavrentiya,100,RU,1630120146,84,65.5833,-171.0,45.05,25.1
Beringovskiy,96,RU,1630120146,87,63.05,179.3167,51.76,12.28
Mataura,74,NZ,1630120147,65,-46.1927,168.8643,50.49,2.37
Avarua,20,CK,1630120147,49,-21.2078,-159.775,71.65,6.91
Gibara,100,CU,1630120147,78,21.1097,-76.1317,78.12,4.52
Ponta Delgada,20,PT,1630120148,83,37.7333,-25.6667,68.72,5.75
Pevek,59,RU,1630120148,76,69.7008,170.3133,35.74,21.65
Saint Paul Harbor,0,US,1630120148,50,57.79,-152.4072,53.55,22.59
São Filipe,42,CV,1630120149,82,14.8961,-24.4956,77.83,7.9
San Policarpo,100,PH,1630120149,83,12.1791,125.5072,82.27,4.94
Talnakh,100,RU,1630120149,99,69.4865,88.3972,37.49,9.78
Thompson,97,CA,1630120150,60,55.7435,-97.8558,56.8,4.43
Avera,41,US,1630120150,76,33.194,-82.5271,79.72,6.71
Wajid,11,SO,1630120150,74,3.8093,43.2471,69.58,15.97
Naze,73,JP,1630120151,70,28.3667,129.4833,80.29,5.53
Antofagasta,27,CL,1630120151,78,-23.65,-70.4,56.48,6.2
Cherskiy,17,RU,1630120151,48,68.75,161.3,53.22,12.41
Bandundu Province,95,CD,1630120152,77,-3.3167,17.3667,76.24,3.4
Kotdwāra,96,IN,1630120152,89,29.75,78.5333,77.83,3.85
Bathsheba,40,BB,1630120152,83,13.2167,-59.5167,83.01,20.71
Gisborne,73,NZ,1630120152,66,-38.6533,178.0042,66.94,12.1
East London,92,ZA,1630120153,61,-33.0153,27.9116,52.3,15.95
Yingkou,0,CN,1630120153,47,40.6648,122.2283,76.98,8.25
Flinders,100,AU,1630120153,67,-34.5833,150.8552,62.8,10.51
Aketi,97,CD,1630120154,98,2.7388,23.7833,68.9,1.1
Tiksi,100,RU,1630120154,86,71.6872,128.8694,37.53,4.12
Gravdal,99,NO,1630120154,87,68.1214,13.5031,53.1,4.23
Mahébourg,96,MU,1630120155,89,-20.4081,57.7,73.26,23.62
Tiznit Province,1,MA,1630120155,37,29.5833,-9.5,72.05,2.3
Rock Springs,1,US,1630120155,22,41.5875,-109.2029,68.05,1.99
Vilyuysk,74,RU,1630120156,44,63.7553,121.6247,51.33,4.81
Retalhuleu,99,GT,1630120156,96,14.5333,-91.6833,79.68,2.91
Kimbe,56,PG,1630120156,76,-5.5502,150.1429,84.34,1.28
Sigli,86,ID,1630120157,62,5.3848,95.9609,84.0,1.23
Clyde River,88,CA,1630120157,93,70.4692,-68.5914,33.28,2.82
Aswān,0,EG,1630120157,27,24.0934,32.907,85.33,10.42
Tyazhinskiy,0,RU,1630120158,53,56.116,88.524,67.33,4.74
Bodrum,0,TR,1630120158,82,37.0383,27.4292,76.48,4.32
Batagay-Alyta,100,RU,1630120158,87,67.8006,130.4114,39.7,3.62
Gouré,89,NE,1630120158,49,13.9835,10.2704,84.02,5.5
Nowa Sól,100,PL,1630120159,92,51.8033,15.717,54.99,2.13
Longyearbyen,20,SJ,1630120159,87,78.2186,15.6401,37.24,5.75
Santa Rosa,98,PH,1630120159,68,14.3122,121.1114,90.09,9.71
Nicolás Bravo,66,MX,1630120160,83,18.45,-88.9167,76.93,0.4
Hasaki,1,JP,1630120160,72,35.7333,140.8333,90.0,6.58
Kurayoshi,52,JP,1630120160,81,35.4333,133.8167,82.81,10.02
Natitingou,100,BJ,1630120161,91,10.3042,1.3796,69.31,2.33
Heraclea,0,TR,1630120161,34,37.5133,34.0467,68.45,1.59
Nantucket,1,US,1630120161,85,41.2835,-70.0995,76.01,5.75
Vila Velha,20,BR,1630120162,88,-20.3297,-40.2925,69.75,2.3
Sitka,90,US,1630120162,82,57.0531,-135.33,57.09,8.05
Fort Nelson,89,CA,1630120162,82,58.8053,-122.7002,56.97,3.04
Gemeente Wageningen,75,NL,1630120163,93,51.9667,5.6667,60.85,6.91
Bara,100,NG,1630120163,92,10.3744,10.7288,73.83,4.25
Coyhaique,0,CL,1630120163,93,-45.5752,-72.0662,37.35,4.61
Porto-Novo,100,BJ,1630120164,94,6.4965,2.6036,74.44,3.94
Codrington,100,AU,1630120164,58,-38.2667,141.9667,60.3,17.05
Airai,82,TL,1630120164,33,-8.9266,125.4092,76.69,5.23
Bendigo,16,AU,1630120165,48,-36.7667,144.2833,57.63,5.01
Hong Kong,41,HK,1630119849,70,22.2855,114.1577,87.96,3.0
Saint-Augustin,100,CA,1630120165,71,51.226,-58.6502,52.97,24.27
Tura,100,IN,1630120165,96,25.5198,90.2201,73.27,2.62
Ati,100,TD,1630120166,49,13.2154,18.3353,86.9,4.97
Torbay,100,CA,1630119932,95,47.6666,-52.7314,67.57,1.99
Spring Valley,1,US,1630119935,13,36.108,-115.245,101.59,4.0
Arraial do Cabo,100,BR,1630120166,88,-22.9661,-42.0278,70.3,9.17
Port Lincoln,18,AU,1630119970,57,-34.7333,135.8667,56.98,21.36
Camaná,97,PE,1630120167,84,-16.6228,-72.7111,60.17,8.86
Ketchikan,90,US,1630120167,88,55.3422,-131.6461,55.87,4.61
Nova Varoš,56,RS,1630120167,97,43.4606,19.8114,48.34,1.9
Ozinki,100,RU,1630120168,40,51.1786,49.6769,61.83,10.71
Alta Floresta,26,BR,1630120168,40,-9.8756,-56.0861,78.31,0.31
Chokurdakh,54,RU,1630120168,46,70.6333,147.9167,47.14,13.56
Troitsko-Pechorsk,50,RU,1630120169,77,62.7084,56.1964,43.86,4.61
Lebu,100,CL,1630120169,95,-37.6167,-73.65,49.98,22.48
Ilulissat,75,GL,1630120169,81,69.2167,-51.1,39.22,6.91
Nkhata Bay,24,MW,1630120170,51,-11.6066,34.2907,69.94,3.58
Tavira,0,PT,1630120170,76,37.1273,-7.6486,67.87,5.48
Broken Hill,76,AU,1630120170,22,-31.95,141.4333,67.75,23.58
Ixtapa,100,MX,1630120171,91,20.7,-105.2,78.22,1.01
Wanning,97,CN,1630120171,67,18.8003,110.3967,86.29,5.39
Puerto Quijarro,74,BO,1630120171,66,-17.7833,-57.7667,73.15,6.4
Nanortalik,97,GL,1630120171,91,60.1432,-45.2371,40.98,8.12
Cervo,92,ES,1630120172,85,43.6702,-7.4101,66.43,9.82
Beni,99,CD,1630120172,89,0.5,29.4667,61.36,1.41
Grindavik,90,IS,1630120172,93,63.8424,-22.4338,50.47,13.8
Plouzané,0,FR,1630120173,94,48.3833,-4.6167,55.72,5.75
Port-Gentil,95,GA,1630120173,86,-0.7193,8.7815,75.04,13.42
Sabha,0,LY,1630120173,20,27.0377,14.4283,81.48,9.24
Bulawayo,0,ZW,1630120174,38,-20.15,28.5833,58.82,6.35
Sur,80,OM,1630120174,52,22.5667,59.5289,87.39,6.46
Jumla,100,NP,1630120174,97,29.2747,82.1838,63.28,2.13
Maragogi,70,BR,1630120175,77,-9.0122,-35.2225,74.26,9.1
Muros,6,ES,1630120175,92,42.7762,-9.0603,64.24,0.76
George Town,20,MY,1630119963,78,5.4112,100.3354,85.93,1.99
Constitución,100,CL,1630119956,87,-35.3333,-72.4167,48.63,8.59
Katsuura,1,JP,1630120175,70,35.1333,140.3,87.91,6.35
Praia da Vitória,58,PT,1630120176,92,38.7333,-27.0667,69.76,8.05
Caborca,63,MX,1630120176,42,30.5838,-111.101,87.21,3.94
Bambous Virieux,97,MU,1630120176,90,-20.3428,57.7575,73.22,23.0
Dumas,1,US,1630120177,44,35.8656,-101.9732,81.82,9.22
Chitungwiza,0,ZW,1630120177,49,-18.0127,31.0756,56.44,6.69
Seoul,87,KR,1630119907,68,37.5683,126.9778,79.21,3.67
Lagoa,93,PT,1630120177,83,39.05,-27.9833,69.48,7.94
Constantine,1,DZ,1630120178,36,36.365,6.6147,75.24,1.99
Okato,72,NZ,1630120178,77,-39.2,173.8833,60.42,6.87
Laas,93,IT,1630120178,90,46.6166,10.7002,52.63,5.59
Sinnamary,96,GF,1630120179,90,5.3833,-52.95,78.08,11.65
Alekseyevsk,52,RU,1630120179,39,57.8406,108.3492,68.45,2.91
Det Udom,100,TH,1630120179,73,14.906,105.0784,82.17,5.26
Onega,28,RU,1630120180,81,63.9061,38.1404,43.39,4.81
Kumul,0,CN,1630120180,19,42.8,93.45,82.27,12.03
Mobaye,93,CF,1630120180,97,4.319,21.1786,69.66,0.87
Morondava,1,MG,1630120181,89,-20.2833,44.2833,68.27,9.37
Tanout,74,NE,1630120181,40,14.9709,8.8879,87.26,5.91
Sept-Îles,0,CA,1630120024,64,50.2001,-66.3821,58.05,1.99
Khanbari,100,NP,1630120181,96,27.3747,87.2039,70.88,1.3
Ust-Kuyga,100,RU,1630120182,95,70.0167,135.6,36.0,6.02
Manggar,97,ID,1630120182,72,-2.8833,108.2667,82.89,12.95
Caravelas,0,BR,1630120182,85,-17.7125,-39.2481,70.21,5.28
Lorengau,86,PG,1630120183,72,-2.0226,147.2712,84.24,9.6
Ponta do Sol,7,PT,1630120183,74,32.6667,-17.1,73.71,2.62
New Norfolk,100,AU,1630120183,51,-42.7826,147.0587,52.92,2.59
Koygorodok,29,RU,1630120184,77,60.445,50.9968,42.46,3.24
Marsh Harbour,100,BS,1630119931,78,26.5412,-77.0636,82.99,15.9
Arrondissement de Thionville,63,FR,1630120184,89,49.3333,6.3333,55.49,6.78
Broome,90,US,1630120184,88,42.2506,-75.833,73.6,4.61
Lingao,22,CN,1630120185,61,19.9103,109.6859,88.68,8.86
Itoman,40,JP,1630120185,70,26.1247,127.6694,89.98,9.22
Ceres,1,US,1630120163,46,37.5949,-120.9577,91.98,4.61
Lüderitz,0,NA,1630120185,63,-26.6481,15.1594,48.78,10.02
Port Blair,90,IN,1630120186,88,11.6667,92.75,77.04,1.14
Aykhal,89,RU,1630120186,61,66.0,111.5,56.1,22.93
Lisala,91,CD,1630120186,98,2.15,21.5167,68.47,0.65
Iqaluit,99,CA,1630120187,76,63.7506,-68.5145,42.67,10.87
Mudgee,3,AU,1630120187,44,-32.5943,149.5871,56.62,8.5
Ribeira Grande,99,PT,1630120187,85,38.5167,-28.7,71.26,11.1
Khatanga,100,RU,1630120188,92,71.9667,102.5,37.11,14.41
Fortuna,1,US,1630120188,69,40.5982,-124.1573,61.32,1.01
Mount Isa,0,AU,1630120188,9,-20.7333,139.5,82.17,4.61
Abu Dhabi,51,AE,1630120189,70,24.4667,54.3667,91.51,5.75
Lipari,0,IT,1630120189,61,38.4674,14.954,76.95,7.94
Saint-Joseph,94,RE,1630120189,90,-21.3667,55.6167,68.38,20.6
Nishihara,40,JP,1630120190,70,26.1842,127.7558,89.26,9.22
Saint-Leu,84,RE,1630120190,81,-21.15,55.2833,68.86,9.51
Inhambane,6,MZ,1630120190,89,-23.865,35.3833,68.9,11.05
Port Keats,10,AU,1630120191,20,-14.25,129.55,93.02,3.44
Kindu,92,CD,1630120191,84,-2.95,25.95,70.0,1.7
Alamogordo,1,US,1630120047,59,32.8995,-105.9603,78.15,8.05
Cabo San Lucas,8,MX,1630120191,78,22.8909,-109.9124,87.62,1.99
Marystown,95,CA,1630119986,84,47.1666,-55.1483,59.65,18.52
Dalby,3,AU,1630120192,27,-27.1833,151.2667,71.49,7.85
Husavik,63,IS,1630120192,78,66.0449,-17.3389,55.15,8.21
Palu,97,ID,1630120067,91,-0.8917,119.8707,79.03,0.87
Taoudenni,35,ML,1630120192,27,22.6783,-3.9836,93.0,9.28
Klaksvík,100,FO,1630120193,90,62.2266,-6.589,50.92,12.1
Phalodi,79,IN,1630120193,61,27.1333,72.3667,83.41,14.65
Ouadda,100,CF,1630120193,94,8.0777,22.4007,69.1,0.51
Santa Cruz de Tenerife,0,ES,1630120194,63,28.4682,-16.2546,74.8,1.99
Harper,55,LR,1630120194,87,4.375,-7.7169,76.37,8.93
Bonthe,43,SL,1630120194,88,7.5264,-12.505,76.78,4.0
Malbork,96,PL,1630120195,90,54.0359,19.0266,56.95,3.11
Tūkrah,1,LY,1630120195,50,32.5341,20.5791,80.6,1.21
Vaitape,16,PF,1630120195,74,-16.5167,-151.75,79.11,11.25
San Andrés,20,CO,1630120195,78,12.5847,-81.7006,82.42,4.61
Bukama,98,CD,1630120196,46,-9.2,25.85,77.7,2.77
Pachino,0,IT,1630120196,70,36.7186,15.0907,66.24,3.4
Paciran,55,ID,1630120196,56,-6.8767,112.3761,85.91,4.23
Hofn,100,IS,1630120197,94,64.2539,-15.2082,53.98,12.73
Fethiye,0,TR,1630120197,46,36.6217,29.1164,69.67,4.09
Jamame,8,SO,1630120197,76,0.0722,42.7506,73.35,10.49
Gayéri,99,BF,1630120198,86,12.6497,0.4931,76.15,6.24
Rio Grande,2,BR,1630120198,72,-32.035,-52.0986,54.48,5.7
Progreso,0,MX,1630120198,87,21.2833,-89.6667,76.1,6.71
Urucará,77,BR,1630120199,97,-2.5364,-57.76,72.59,2.15
Faanui,16,PF,1630120199,74,-16.4833,-151.75,79.12,11.32
Carbonia,15,IT,1630120199,94,39.1672,8.5222,72.99,4.07
Ahipara,99,NZ,1630120200,89,-35.1667,173.1667,62.94,8.32
Isangel,9,VU,1630120200,62,-19.55,169.2667,77.38,12.26
Chara,91,RU,1630120200,62,56.9064,118.2631,54.14,2.55
Anito,100,PH,1630120201,74,12.4497,125.2886,85.35,5.99
Kahului,40,US,1630120050,59,20.8947,-156.47,84.22,20.71
Serebryanyy Bor,94,RU,1630120201,58,56.8,124.8,45.75,11.99
Monte Patria,100,CL,1630119953,52,-30.6919,-70.9467,59.52,2.24
Xining,11,CN,1630120201,55,36.6167,101.7667,59.05,2.46
Deniliquin,34,AU,1630120202,34,-35.5333,144.9667,62.01,9.73
Greystones,0,IE,1630120202,96,53.1408,-6.0631,53.78,3.27
Lynnwood,1,US,1630120119,74,47.8209,-122.3151,64.42,1.01
Tautira,21,PF,1630120209,74,-17.7333,-149.15,78.82,15.26
Coahuayana Viejo,100,MX,1630120210,98,18.7333,-103.6833,72.18,5.26
Matara,100,LK,1630120210,86,5.9485,80.5353,80.28,14.12
Verkhnyaya Inta,100,RU,1630120210,92,65.9811,60.3094,43.41,20.45
Bongandanga,39,CD,1630120211,98,1.5,21.05,69.62,0.85
Norman Wells,74,CA,1630120211,62,65.282,-126.8329,63.9,5.86
Santa Cruz del Sur,100,CU,1630119969,74,20.7147,-77.9956,82.6,13.62
Mossamedes,0,AO,1630120210,88,-15.1961,12.1522,59.95,5.82
Montepuez,40,MZ,1630120212,96,-13.1256,38.9997,63.5,3.58
Adré,100,TD,1630120212,60,13.4667,22.2,77.29,3.94
Departamento de Maldonado,0,UY,1630120212,79,-34.6667,-54.9167,43.23,5.17
Guerrero Negro,2,MX,1630120213,79,27.9769,-114.0611,75.67,9.17
Kruisfontein,3,ZA,1630120213,61,-34.0033,24.7314,39.88,9.28
Half Moon Bay,1,US,1630120213,79,37.4636,-122.4286,89.42,5.75
Zharkent,100,KZ,1630120214,28,44.1628,80.0,76.8,3.98
Kavaratti,100,IN,1630120214,77,10.5669,72.642,81.91,15.05
Pascagoula,1,US,1630120129,96,30.3658,-88.5561,77.56,4.61
Nouadhibou,7,MR,1630120215,82,20.931,-17.0347,72.73,11.43
Cotonou,100,BJ,1630120153,89,6.3654,2.4183,76.57,9.6
Sédhiou,100,SN,1630120215,96,12.7081,-15.5569,74.1,3.18
Kavieng,100,PG,1630120215,77,-2.5744,150.7967,83.41,14.23
Lishu,0,CN,1630120216,61,43.3047,124.3278,70.97,15.1
Chicama,57,PE,1630120216,80,-7.8447,-79.1469,65.07,6.91
Honningsvåg,87,NO,1630120216,80,70.9821,25.9704,46.89,28.34
Karachi,75,PK,1630120216,65,24.9056,67.0822,84.02,8.05
Mmabatho,79,ZA,1630120217,53,-25.85,25.6333,48.45,15.41
Lompoc,1,US,1630120217,90,34.6391,-120.4579,74.79,4.61
Portland,13,US,1630119949,60,45.5234,-122.6762,68.32,1.01
Totolapan,100,MX,1630120217,87,18.5167,-96.1833,80.92,1.5
Mountain Home,0,US,1630120218,28,43.133,-115.6912,72.34,9.73
Balotra,94,IN,1630120218,64,25.8333,72.2333,83.07,13.56
Forsytheganj,88,BY,1630120218,91,52.6333,29.7333,56.01,3.6
Belyy Yar,0,RU,1630120219,59,53.6039,91.3903,66.09,2.24
Islamkot,99,PK,1630120219,58,24.6997,70.177,83.08,14.38
Bukachacha,9,RU,1630120220,43,52.9833,116.9167,64.33,6.76
Okhotsk,100,RU,1630120220,80,59.3833,143.3,60.51,4.21
Leningradskiy,100,RU,1630120220,89,69.3833,178.4167,33.84,9.37
Jablah,0,SY,1630120221,73,35.3614,35.9256,71.89,3.44
Palmas,0,BR,1630120221,50,-10.2128,-48.3603,80.47,2.3
Tshikapa,88,CD,1630120221,77,-6.4167,20.8,74.7,2.86
Araceli,99,PH,1630120222,73,10.5529,119.9913,84.09,10.89
Dom Pedrito,6,BR,1630120222,75,-30.9828,-54.6731,47.7,5.37
Batemans Bay,99,AU,1630120222,70,-35.7167,150.1833,59.99,2.66
Kloulklubed,52,PW,1630120223,72,7.0419,134.2556,86.5,7.25
Athabasca,65,CA,1630120223,72,54.7169,-113.2854,56.03,4.45
Tessalit,27,ML,1630120223,25,20.1986,1.0114,90.37,6.78
Palmerston,0,AU,1630120224,30,-12.486,130.9833,92.03,13.8
Aksu,12,CN,1630120224,32,41.1231,80.2644,77.43,6.8
Carnarvon,0,AU,1630120224,34,-24.8667,113.6333,73.47,16.11
Sartell,90,US,1630120224,95,45.6216,-94.2069,71.55,1.01
Fairbanks,90,US,1630120225,93,64.8378,-147.7164,44.1,3.0
Tual,100,ID,1630120225,88,-5.6667,132.75,77.95,19.69
Bereda,47,ES,1630120225,97,43.2686,-7.5406,58.75,1.86
Sisimiut,96,GL,1630120226,79,66.9395,-53.6735,41.38,3.56
Parrita,100,CR,1630120226,93,9.5201,-84.3225,82.98,2.8
Marovoay,12,MG,1630120227,65,-16.1,46.6333,66.34,6.44
Bahía de Caráquez,94,EC,1630119930,86,-0.6,-80.4167,73.58,6.49
Čaška,0,MK,1630120227,75,41.6506,21.6622,61.32,3.36
Krasnosel'kup,7,RU,1630120227,61,65.7,82.4667,44.08,16.33
Andros,0,GR,1630120228,68,37.8333,24.9333,76.41,2.84
São José da Coroa Grande,69,BR,1630120228,76,-8.8978,-35.1478,74.59,9.44
Władysławowo,100,PL,1630119977,87,54.7909,18.4009,54.93,1.34
Vostok,74,RU,1630120228,81,46.4856,135.8833,63.5,9.42
São Francisco,1,BR,1630120229,38,-15.9486,-44.8644,73.8,9.17
Keroka,5,KE,1630120229,66,-0.7758,34.9453,50.0,2.86
Rovaniemi,0,FI,1630120223,100,66.5,25.7167,42.21,6.91
Ouésso,87,CG,1630120230,95,1.6136,16.0517,71.13,2.53
Acajutla,37,SV,1630120230,87,13.5928,-89.8275,79.32,6.69
Magadan,100,RU,1630120231,93,59.5667,150.8,56.39,2.57
Vila Franca do Campo,60,PT,1630120231,86,37.7167,-25.4333,68.41,7.31
Aklavik,100,CA,1630120231,80,68.2191,-135.0107,48.13,20.8
Foki,18,RU,1630120232,74,56.693,54.3499,47.59,6.96
Esmeraldas,2,BR,1630120233,62,-19.7625,-44.3139,68.86,6.04
Angol,100,CL,1630120233,97,-37.8,-72.7167,45.88,9.57
Bakchar,18,RU,1630120234,80,57.0186,82.0711,65.89,6.73
Luena,33,AO,1630120234,39,-11.7833,19.9167,58.15,1.61
Guaporé,50,BR,1630120235,94,-28.8456,-51.8903,49.71,1.39
Langxiang,100,CN,1630120235,98,46.95,128.8833,58.28,3.6
Ivolginsk,4,RU,1630120235,63,51.7492,107.2837,60.46,2.24
Brewster,75,US,1630120236,91,41.3973,-73.6171,79.74,0.0
Cabra,0,ES,1630120236,56,37.4725,-4.4421,71.91,1.45
Hambantota,98,LK,1630120236,73,6.1241,81.1185,82.6,20.85
Te Anau,94,NZ,1630120237,87,-45.4167,167.7167,49.68,0.54
Korla,100,CN,1630120237,23,41.7597,86.1469,79.59,12.97
Lima,90,PE,1630120192,82,-12.0432,-77.0282,59.25,10.36
Belaya Gora,100,RU,1630120237,74,68.5333,146.4167,45.93,12.77
Tuatapere,97,NZ,1630120238,78,-46.1333,167.6833,50.83,3.15
Yangcun,100,CN,1630120238,72,39.3639,117.0603,78.78,5.03
Bollnäs,26,SE,1630120238,98,61.3482,16.3946,48.38,5.19
Nemuro,13,JP,1630120239,78,43.3236,145.575,69.31,11.56
Ranong,97,TH,1630120239,85,9.9658,98.6348,79.83,5.21
Makkah al Mukarramah,3,SA,1630120239,49,21.4267,39.8261,85.26,4.74
Mombetsu,49,JP,1630120239,52,44.3525,143.3525,78.76,15.08
Hirado,3,JP,1630120240,79,33.3597,129.5531,81.01,10.18
Ashdod,1,IL,1630120240,67,31.8167,34.65,82.8,3.91
Faya,97,SA,1630120240,55,18.3851,42.4509,63.12,5.17
Puerto Baquerizo Moreno,100,EC,1630120241,79,-0.9,-89.6,68.36,10.83
Richards Bay,100,ZA,1630120241,80,-28.783,32.0377,66.11,13.56
Orlik,78,RU,1630120241,50,52.5178,99.825,60.06,2.8
Cartagena del Chairá,100,CO,1630120242,99,1.3349,-74.8429,72.03,3.27
Semey,0,KZ,1630119960,48,50.4111,80.2275,66.42,2.24
Westport,64,US,1630120041,94,41.1415,-73.3579,80.74,4.09
Kaitangata,100,NZ,1630120242,80,-46.2817,169.8464,49.82,7.38
Yar-Sale,100,RU,1630120243,72,66.8333,70.8333,44.08,14.94
Arlit,29,NE,1630120243,30,18.7369,7.3853,89.83,8.39
Cedar City,1,US,1630120062,14,37.6775,-113.0619,75.4,9.22
Ambilobe,3,MG,1630120243,86,-13.2,49.05,62.1,3.4
Lábrea,81,BR,1630120244,35,-7.2586,-64.7981,82.09,0.76
Săcele,100,RO,1630120244,71,45.6174,25.6943,57.02,2.44
Tignère,100,CM,1630120244,97,7.3667,12.65,63.9,2.84
Herat Province,0,AF,1630120245,21,34.5,62.0,77.49,20.58
Falam,100,MM,1630120245,78,22.9167,93.6833,71.37,3.2
Killarney,4,IE,1630120245,94,52.05,-9.5167,54.97,3.24
French Harbor,20,HN,1630120246,89,16.35,-86.4333,80.01,0.0
Tevaitoa,17,PF,1630120246,75,-16.7833,-151.5,78.96,12.28
Najrān,93,SA,1630120247,22,17.4924,44.1277,83.46,3.33
Kushiro,82,JP,1630120247,74,42.975,144.3747,73.26,14.97
Berbérati,46,CF,1630120247,98,4.2612,15.7922,67.66,2.53
Tezu,100,IN,1630120247,99,27.9167,96.1667,73.74,2.15
Matucana,92,PE,1630120248,60,-11.85,-76.4,59.04,1.21
Escuintla,68,GT,1630120248,95,14.305,-90.785,79.48,4.45
Korsholm,24,FI,1630120015,100,63.1142,21.6822,49.33,2.3
Prince Rupert,90,CA,1630120139,94,54.3161,-130.3201,57.29,9.22
Patos,70,BR,1630120249,66,-7.0244,-37.28,72.41,14.07
Quelimane,7,MZ,1630120249,97,-17.8786,36.8883,67.64,4.54
Port Augusta,17,AU,1630120249,32,-32.5,137.7667,67.71,17.56
Smoky Lake,75,CA,1630120250,65,54.1169,-112.4686,59.49,6.82
Acarí,68,PE,1630120250,75,-15.4311,-74.6158,63.18,4.14
Bonavista,100,CA,1630120250,95,48.6499,-53.1147,67.12,13.78
Hamilton,1,US,1630120251,95,39.1834,-84.5333,74.75,0.0
Gizo Government Station,95,SB,1630120251,69,-8.103,156.8419,85.03,6.73
Berck,75,FR,1630120251,94,50.4,1.6,59.7,3.44
Kalasin,100,TH,1630120252,72,16.5,103.5,82.13,10.69
Nhulunbuy,23,AU,1630120252,45,-12.2333,136.7667,86.61,20.71
Prabumulih,97,ID,1630120252,58,-3.45,104.25,84.2,3.27
Grand Gaube,78,MU,1630120253,78,-20.0064,57.6608,73.38,11.99
Aden,89,YE,1630119978,78,12.7794,45.0367,86.77,19.42
Bonga,100,ET,1630120253,99,7.2833,36.2333,59.95,2.04
Indramayu,33,ID,1630120253,52,-6.3264,108.32,85.28,7.72
Atambua,89,ID,1630120254,40,-9.1061,124.8925,86.29,4.38
Barguzin,25,RU,1630120254,51,53.6167,109.6167,67.19,3.04
Galveston,1,US,1630120254,86,29.3669,-94.9669,84.99,6.91
Mount Gambier,92,AU,1630120255,41,-37.8333,140.7667,60.71,18.41
Yulara,0,AU,1630120255,23,-25.2406,130.9889,73.24,3.44
Mahabalipuram,100,IN,1630120255,71,12.6264,80.1722,80.65,18.81
Río Gallegos,90,AR,1630120256,81,-51.6226,-69.2181,41.05,12.66
Elko,0,US,1630120256,18,41.0002,-115.5012,71.64,8.01
Yanino Vtoroye,39,RU,1630120256,95,59.9355,30.6153,56.86,5.59
Komsomol'skoye,89,RU,1630120257,73,55.2567,47.5461,48.13,9.04
Moose Factory,56,CA,1630120257,81,51.2585,-80.6094,47.28,5.91
Eureka,5,US,1630120257,76,40.8021,-124.1637,61.57,3.85
Verkhnetulomskiy,100,RU,1630120258,90,68.6073,31.7962,44.73,4.16
Lalibela,51,ET,1630120258,78,12.0333,39.0333,57.11,2.51
Philadelphia,75,US,1630120213,87,39.9523,-75.1638,78.76,0.0
Alice Springs,3,AU,1630120258,9,-23.7,133.8833,81.95,13.8
Thanh Hoa,100,VN,1630120259,75,19.8,105.7667,83.88,2.24
Vardø,97,NO,1630120259,79,70.3705,31.1107,48.79,25.81
Puerto Colombia,89,CO,1630120259,82,10.9878,-74.9547,80.69,15.23
Tarakan,100,ID,1630120259,75,3.3,117.6333,81.45,5.79
Desterro,56,BR,1630120260,83,-7.2906,-37.0939,65.35,13.38
Russell,75,US,1630120260,93,32.3502,-85.1999,76.71,3.44
Mbini,82,GQ,1630120260,89,1.574,9.6134,75.79,8.93
Buala,44,SB,1630120261,70,-8.145,159.5921,85.46,11.18
Turukhansk,100,RU,1630120261,70,65.8167,87.9833,42.46,16.08
Pisco,95,PE,1630120261,82,-13.7,-76.2167,60.03,3.44
Eydhafushi,100,MV,1630120262,75,5.1033,73.0708,81.23,15.21
Aguachica,63,CO,1630120262,93,8.3084,-73.6166,74.35,4.83
Reyes,12,BO,1630120263,66,-14.3167,-67.3833,69.82,0.36
Bilma,29,NE,1630120263,25,18.6853,12.9164,91.11,3.69
Villafranca de los Barros,0,ES,1630120263,77,38.5614,-6.3381,64.81,4.59
Sabang,99,ID,1630120263,72,5.8933,95.3214,81.41,11.01
Baraki Barak,3,AF,1630120264,19,33.9675,68.9486,69.98,2.28
Pangai,99,TO,1630120264,63,-19.8,-174.35,70.9,20.56
Ust'-Ishim,8,RU,1630120264,65,57.6935,71.1665,52.5,10.22
São Miguel do Araguaia,99,BR,1630120265,26,-13.275,-50.1628,84.45,3.36
Örnsköldsvik,7,SE,1630120265,100,63.2909,18.7153,43.75,5.75
Shiraz,0,IR,1630120265,21,29.6036,52.5388,75.09,5.41
Pangnirtung,100,CA,1630120266,96,66.1451,-65.7125,40.53,5.12
Kupang,20,ID,1630120266,35,-10.1667,123.5833,91.98,16.11
Pacific Grove,1,US,1630120221,84,36.6177,-121.9166,77.43,1.01
The Valley,4,AI,1630120190,81,18.217,-63.0578,83.82,19.62
Chebsara,62,RU,1630120266,86,59.2002,38.8356,42.13,6.33
Camargo,62,MX,1630120267,32,27.6667,-105.1667,82.76,6.8
Saint Anthony,75,US,1630120267,91,45.0205,-93.218,73.15,3.0
Province of Groningen,74,NL,1630120209,74,53.25,6.75,62.02,1.01
Teahupoo,22,PF,1630120268,74,-17.8333,-149.2667,73.36,15.79
Souillac,97,MU,1630120268,90,-20.5167,57.5167,73.36,23.09
Mbalmayo,100,CM,1630120268,98,3.5167,11.5,68.16,4.25
Puerto Peñasco,1,MX,1630120268,84,31.3167,-113.5333,88.92,13.0
Derzhavīnsk,67,KZ,1630120269,39,51.1,66.3167,75.72,7.0
Terrace,99,CA,1630120269,93,54.5163,-128.6035,60.42,3.85
Letnyaya Stavka,4,RU,1630120270,62,45.4306,43.4472,74.71,1.99
Camacha,20,PT,1630120270,83,33.0833,-16.3333,68.76,6.91
Marabu,86,MY,1630120270,77,4.4148,114.0089,82.13,4.23
Dongfeng,0,CN,1630120271,61,42.6403,125.5118,70.07,16.55
Clarksburg,1,US,1630120271,94,39.2807,-80.3445,75.88,0.0
Wanaka,100,NZ,1630120271,84,-44.7,169.15,49.06,1.72
Chancay,76,PE,1630120272,88,-11.5714,-77.2672,60.67,7.38
Along,100,IN,1630120272,100,28.1667,94.7667,73.17,1.05
Clifton,1,US,1630120273,85,40.8584,-74.1638,80.69,0.0
Mundo Nuevo (Ojo de Agua),93,MX,1630120273,74,18.7,-95.5,79.93,4.34
Rzhev,100,RU,1630120273,85,56.2624,34.3282,55.02,11.21
Grayvoron,0,RU,1630120273,87,50.4767,35.6773,58.08,3.65
Puerto del Rosario,2,ES,1630120274,78,28.5004,-13.8627,71.35,8.05
Aquin,46,HT,1630120274,83,18.2833,-73.4,78.98,3.06
Cockburn Town,44,TC,1630120242,81,21.4612,-71.1419,82.24,21.23
Hope,67,US,1630120201,67,33.6671,-93.5916,82.94,5.5
Nelson Bay,59,AU,1630120275,51,-32.7167,152.15,65.75,3.0
Saldanha,9,ZA,1630120275,66,-33.0117,17.9442,50.38,15.61
Lázaro Cárdenas,100,MX,1630120011,93,17.9583,-102.2,73.62,12.08
Talcahuano,90,CL,1630120275,87,-36.7167,-73.1167,51.48,20.71
Keflavik,90,IS,1630120276,93,64.0049,-22.5624,51.53,13.8
Shiyan,100,CN,1630120276,97,32.6475,110.7781,66.0,2.46
Øksfjord,100,NO,1630120276,97,70.2396,22.3479,53.67,10.49
Colares,31,PT,1630120277,75,38.7992,-9.4469,68.29,2.64
North Myrtle Beach,75,US,1630120277,86,33.816,-78.68,82.49,5.75
Cassino,62,IT,1630120277,79,41.4876,13.8315,70.99,3.0
Lodja,16,CD,1630120278,85,-3.4833,23.4333,67.71,1.68
Kinkala,8,CG,1630120278,88,-4.3614,14.7644,71.47,4.12
Alindao,100,CF,1630120278,95,5.0267,21.2088,70.74,1.54
Prattville,1,US,1630120279,85,32.464,-86.4597,78.82,4.61
Benemérito de las Américas,94,MX,1630120279,75,16.5167,-90.6439,76.93,2.19
San Vicente,90,AR,1630120279,71,-26.6167,-54.1333,51.8,2.46
Vilhena,96,BR,1630120280,37,-12.7406,-60.1458,79.54,2.06
Mehamn,83,NO,1630120280,83,71.0357,27.8492,46.09,26.42
Itarema,100,BR,1630120280,83,-2.9248,-39.9167,78.03,18.43
Jiangyou,100,CN,1630120281,97,31.7667,104.7167,66.7,3.11
Nobeoka,2,JP,1630120281,57,32.5833,131.6667,87.01,3.96
Flin Flon,100,CA,1630120281,75,54.7682,-101.865,57.24,6.13
Aljezur,0,PT,1630120282,89,37.3191,-8.8033,64.31,1.79
Noormarkku,75,FI,1630120282,88,61.5927,21.8685,55.18,5.75
Payyanur,100,IN,1630120282,87,12.1,75.2,78.13,3.98
Kieta,93,PG,1630120283,79,-6.2167,155.6333,82.38,5.14
Dunmore,75,US,1630120283,90,41.4198,-75.6324,75.07,0.0
Kawalu,90,ID,1630120283,62,-7.3817,108.2082,79.38,5.19
Nuuk,75,GL,1630120283,76,64.1835,-51.7216,45.21,18.41
Khovd,64,MN,1630120284,58,48.0056,91.6419,59.56,1.81
Ust-Maya,100,RU,1630120284,57,60.4167,134.5333,47.82,8.25
Fresnillo,99,MX,1630120284,40,23.1667,-102.8833,63.95,16.26
Chipinge,0,ZW,1630120285,41,-20.1883,32.6236,61.05,3.85
Alvik,94,SE,1630120285,77,60.7477,14.8746,51.53,7.11
Bariloche,75,AR,1630120265,87,-41.1456,-71.3082,37.15,17.27
Zemio,36,CF,1630120285,99,5.0314,25.1361,67.33,1.88
Sal Rei,61,CV,1630120286,83,16.1833,-22.9167,76.82,9.42
Dawson Creek,15,CA,1630120286,70,55.7666,-120.2362,56.23,8.77
Homer,75,US,1630120194,56,59.6425,-151.5483,60.69,12.66
Sibolga,84,ID,1630120287,67,1.7427,98.7792,83.95,3.4
Berbera,84,SO,1630120287,46,10.4396,45.0143,88.7,12.53
Yumen,11,CN,1630120287,30,40.2833,97.2,72.19,15.48
Keti Bandar,100,PK,1630120288,76,24.1447,67.4497,80.29,12.06
Balkanabat,0,TM,1630120288,28,39.5108,54.3671,85.08,1.32
Calama,0,CL,1630120288,22,-22.4667,-68.9333,39.69,12.66
Kishtwār,65,IN,1630120288,78,33.3167,75.7667,69.62,1.66
Saint-Pierre,90,RE,1630120289,91,-21.3393,55.4781,69.48,27.63
Sychëvka,100,RU,1630120289,73,55.8252,34.2736,57.67,11.41
El Salvador,84,SV,1630120290,95,13.8333,-88.9167,73.8,0.76
College,90,US,1630120290,93,64.8569,-147.8028,43.59,9.22
Qingdao,100,CN,1630120290,68,36.0986,120.3719,76.95,6.22
Roald,0,NO,1630120291,100,62.5833,6.1333,52.32,3.44
Harbour Breton,34,CA,1630120291,80,47.4833,-55.7983,59.68,16.2
Great Yarmouth,13,GB,1630120291,94,52.6083,1.7305,59.95,15.23
Northam,0,GB,1630120291,82,51.0333,-4.2167,58.6,6.62
Piaçabuçu,6,BR,1630120292,81,-10.4056,-36.4344,73.71,9.6
Alyangula,43,AU,1630120292,38,-13.8483,136.4192,82.9,14.9
Tamandaré,61,BR,1630120292,77,-8.7597,-35.1047,74.34,8.61
Bagdarin,6,RU,1630120293,47,54.4333,113.6,64.65,1.92
Comal,92,US,1630120143,88,29.8169,-98.3003,77.22,1.99
Smiths Falls,81,CA,1630120293,72,44.9001,-76.0161,65.84,6.24
Motygino,2,RU,1630120293,54,58.1831,94.7592,68.41,4.25
Gallup,1,US,1630120294,43,35.5281,-108.7426,70.56,1.99
Karasjok,100,NO,1630120294,78,69.4719,25.5112,51.91,18.79
Alice Town,100,BS,1630120294,80,25.7167,-79.3,83.66,20.04
Conceição do Araguaia,66,BR,1630120295,43,-8.2578,-49.2647,81.18,2.82
Sittwe,97,MM,1630120295,80,20.15,92.9,83.35,16.78
Chegutu,0,ZW,1630120295,43,-18.1302,30.1407,59.77,4.59
Mersing,11,MY,1630120296,65,2.4312,103.8405,85.51,6.26
Beïnamar,100,TD,1630120296,99,8.6698,15.3813,70.93,2.24
Garden City,75,US,1630120296,90,42.3256,-83.331,79.05,1.01
Lata,32,PT,1630120297,99,40.1629,-8.3327,62.06,1.03
Healesville,5,AU,1630120297,41,-37.65,145.5167,65.95,1.99
Ternate,99,ID,1630120297,77,0.8,127.4,80.62,5.64
Potsdam,19,DE,1630120298,95,52.3989,13.0657,57.33,4.21
Beloha,0,MG,1630120298,77,-25.1667,45.05,62.96,10.83
Dukat,100,RU,1630120298,68,62.55,155.55,59.27,6.04
Merritt Island,20,US,1630120018,90,28.5392,-80.672,83.08,4.61
Poum,10,NC,1630120299,76,-20.2333,164.0167,73.71,5.93
Manakara,70,MG,1630120299,86,-22.1333,48.0167,66.11,3.65
Anadyr,75,RU,1630120299,72,64.75,177.4833,59.5,8.95
Port Hedland,0,AU,1630120300,17,-20.3167,118.5667,86.05,20.71
Berdigestyakh,100,RU,1630120300,66,62.0989,126.6992,44.56,9.06
Alikovo,23,RU,1630120300,77,55.7383,46.7549,44.47,8.01
Praia,92,CV,1630120301,82,14.9215,-23.5087,78.03,6.91
