City,Cloudiness,Country,Date,Humidity,Lat,Lng,Max Temp,Wind Speed
Ribeira Grande,100,PT,1629768955,91,38.5167,-28.7,72.32,6.44
Banihāl,51,IN,1629768956,86,33.4167,75.2,69.58,1.9
Lokosovo,8,RU,1629768956,64,61.1333,74.8167,70.74,8.86
Kavieng,100,PG,1629768957,89,-2.5744,150.7967,77.09,8.57
Vaini,20,TO,1629768957,83,-21.2,-175.2,73.56,17.27
Kapaa,90,US,1629768957,80,22.0752,-159.319,80.92,5.99
Norman Wells,75,CA,1629768958,55,65.282,-126.8329,64.44,8.05
Cockburn Town,4,TC,1629768958,75,21.4612,-71.1419,83.08,18.84
Ushuaia,75,AR,1629768695,56,-54.8,-68.3,37.06,19.57
Bathsheba,40,BB,1629768958,94,13.2167,-59.5167,79.41,14.97
George Town,40,MY,1629768959,86,5.4112,100.3354,80.89,1.01
Punta Arenas,90,CL,1629768959,80,-53.15,-70.9167,35.71,18.41
Rikitea,2,PF,1629768959,62,-23.1203,-134.9692,70.02,14.67
Carnarvon,0,AU,1629768960,51,-24.8667,113.6333,68.07,12.66
Reutte,61,AT,1629768960,100,47.4833,10.7167,55.81,1.05
Reynosa,1,MX,1629768961,56,26.0833,-98.2833,91.24,16.11
Chokurdakh,99,RU,1629768961,61,70.6333,147.9167,48.74,10.11
Longyearbyen,75,SJ,1629768962,87,78.2186,15.6401,42.64,3.44
Yerbogachën,65,RU,1629768963,66,61.2767,108.0108,57.78,6.93
Vagay,54,RU,1629768963,61,57.9375,69.0217,69.51,5.1
Barrow,90,US,1629768964,75,71.2906,-156.7887,35.62,3.44
Bethel,90,US,1629768964,93,41.3712,-73.414,73.71,6.91
Severo-Kuril'sk,100,RU,1629768965,89,50.6789,156.125,55.65,13.65
Nikolskoye,100,RU,1629768965,96,59.7035,30.7861,48.09,4.0
Buchach,100,UA,1629768965,66,49.0625,25.388,61.2,8.52
Lorengau,75,PG,1629768966,66,-2.0226,147.2712,83.86,7.23
Florianópolis,40,BR,1629768672,68,-27.6146,-48.5012,63.63,2.3
Albany,94,US,1629768852,92,42.6001,-73.9662,71.02,4.61
Port Elizabeth,0,ZA,1629768967,71,-33.918,25.5701,52.09,5.75
Aklavik,100,CA,1629768967,49,68.2191,-135.0107,59.83,3.83
Avarua,75,CK,1629768967,94,-21.2078,-159.775,77.05,5.75
Prince Rupert,1,CA,1629768867,87,54.3161,-130.3201,60.49,3.44
Anadyr,75,RU,1629768968,87,64.75,177.4833,50.5,11.18
Olafsvik,100,IS,1629768969,97,64.8945,-23.7142,56.16,16.58
Vestmannaeyjar,100,IS,1629768969,98,63.4427,-20.2734,55.44,21.12
Hilo,75,US,1629768969,80,19.7297,-155.09,85.28,11.5
Atuona,0,PF,1629768970,67,-9.8,-139.0333,77.77,15.52
Kushima,100,JP,1629768970,82,31.4583,131.2333,86.04,8.48
Sabha,0,LY,1629768970,32,27.0377,14.4283,78.57,9.35
Makhachkala,20,RU,1629768971,67,42.9764,47.5024,76.98,7.96
Busselton,0,AU,1629768971,62,-33.65,115.3333,56.05,12.77
Naze,100,JP,1629768972,77,28.3667,129.4833,85.12,13.2
Katangli,94,RU,1629768972,76,51.7102,143.2326,63.81,8.88
Adré,100,TD,1629768972,81,13.4667,22.2,69.67,8.34
Darhan,90,MN,1629768973,62,49.4867,105.9228,57.2,12.8
Northam,91,GB,1629768973,95,51.0333,-4.2167,60.3,8.08
Dikson,100,RU,1629768973,94,73.5069,80.5464,40.51,22.75
Jamestown,1,US,1629768974,83,42.097,-79.2353,76.59,12.66
Athabasca,100,CA,1629768975,94,54.7169,-113.2854,55.81,5.32
Klaksvík,100,FO,1629768975,98,62.2266,-6.589,54.52,9.1
Hithadhoo,8,MV,1629768925,74,-0.6,73.0833,82.13,11.79
Torbay,90,CA,1629768931,73,47.6666,-52.7314,66.27,23.02
Changqing,0,CN,1629768976,65,36.5575,116.7272,76.77,5.55
Hays,0,US,1629768976,63,30.0502,-98.0336,89.64,1.01
Kearney,1,US,1629768727,79,40.6995,-99.0815,87.04,8.05
Asău,2,RO,1629768977,91,46.4333,26.4,64.76,3.65
Arraial do Cabo,0,BR,1629768977,83,-22.9661,-42.0278,71.56,16.11
Nanortalik,30,GL,1629768978,79,60.1432,-45.2371,45.36,6.98
Hermanus,0,ZA,1629768978,89,-34.4187,19.2345,53.91,11.63
Tuktoyaktuk,90,CA,1629768979,71,69.4541,-133.0374,53.6,9.22
Mataura,100,NZ,1629768979,59,-46.1927,168.8643,62.47,11.05
Matadi,77,CD,1629768980,81,-5.8167,13.45,73.02,6.22
Shenzhen,99,CN,1629768980,85,22.5455,114.0683,87.75,5.84
Saint Paul Harbor,100,US,1629768981,97,57.79,-152.4072,53.87,8.3
Turaif,0,SA,1629768981,53,31.6725,38.6637,75.45,9.22
Guangzhou,100,CN,1629768982,58,23.1167,113.25,87.75,6.24
Bredasdorp,0,ZA,1629768855,76,-34.5322,20.0403,54.72,12.66
Taoudenni,0,ML,1629768982,22,22.6783,-3.9836,95.65,8.52
Belinsky,100,RU,1629768983,90,52.9647,43.4165,56.61,5.57
Mīnāb,46,IR,1629768984,72,27.1467,57.0801,85.5,3.04
Saurimo,99,AO,1629768984,60,-9.6608,20.3916,70.7,2.37
New Norfolk,39,AU,1629768985,53,-42.7826,147.0587,51.93,4.32
Liverpool,75,GB,1629768985,83,53.4106,-2.9779,62.69,1.99
Mumbwa,56,ZM,1629768986,68,-14.9783,27.0619,64.8,6.76
Reyes,12,BO,1629768986,49,-14.3167,-67.3833,79.99,2.77
Qaanaaq,100,GL,1629768986,57,77.484,-69.3632,35.42,7.56
Kjøllefjord,100,NO,1629768987,88,70.9457,27.3465,45.39,10.74
Khatanga,66,RU,1629768987,69,71.9667,102.5,50.59,6.17
Port Hope,0,US,1629768987,88,43.9408,-82.7127,73.96,3.44
Ko Samui,20,TH,1629768988,70,9.5357,99.9357,84.11,5.75
Aruppukkottai,93,IN,1629768988,65,9.5167,78.1,81.03,6.85
Tabou,82,CI,1629768988,92,4.423,-7.3528,74.98,4.74
Bluff,100,NZ,1629768989,62,-46.6,168.3333,62.8,17.85
Skibbereen,93,IE,1629768989,93,51.55,-9.2667,60.6,7.58
Bethanien,0,NA,1629768990,40,-26.502,17.1583,51.85,4.21
Port Lincoln,93,AU,1629768990,55,-34.7333,135.8667,53.92,12.41
Rodrigues Alves,53,BR,1629768991,61,-7.738,-72.6509,78.69,2.91
Thompson,75,CA,1629768991,71,55.7435,-97.8558,51.96,6.91
Nadym,14,RU,1629768992,77,65.5333,72.5167,64.45,18.19
Guerrero Negro,1,MX,1629768992,70,27.9769,-114.0611,72.81,14.58
Yellowknife,20,CA,1629768992,71,62.456,-114.3525,54.12,13.8
Vostok,1,RU,1629768993,42,46.4856,135.8833,80.55,5.1
Egvekinot,100,RU,1629768993,92,66.3167,-179.1667,32.94,11.16
Fertőd,99,HU,1629768994,83,47.6195,16.8868,62.65,9.31
Yining,100,CN,1629768994,87,29.0361,114.5636,82.49,2.66
Grindavik,90,IS,1629768995,100,63.8424,-22.4338,58.95,23.02
Geraldton,0,AU,1629768995,44,-28.7667,114.6,61.21,13.8
Udachny,95,RU,1629768995,59,66.4167,112.4,52.95,8.14
Kodino,100,RU,1629768996,78,63.7198,39.6447,45.72,7.34
Chengzhong,100,CN,1629768996,93,30.95,113.55,71.65,2.21
Vardø,91,NO,1629768997,72,70.3705,31.1107,43.41,5.44
Lavrentiya,100,RU,1629768997,94,65.5833,-171.0,43.86,9.22
East London,5,ZA,1629768997,64,-33.0153,27.9116,60.13,7.49
Airai,31,TL,1629768998,39,-8.9266,125.4092,76.05,4.85
Bāfq,1,IR,1629768999,18,31.6128,55.4107,79.7,4.83
Talaya,100,RU,1629768999,82,61.3833,152.75,62.28,7.47
Zyryanka,34,RU,1629769000,62,65.75,150.85,56.98,1.83
Taltal,10,CL,1629769000,83,-25.4,-70.4833,54.99,3.22
Ponta do Sol,1,PT,1629769000,76,32.6667,-17.1,75.83,4.47
Esperance,86,AU,1629769001,61,-33.8667,121.9,51.64,11.1
Heihe,54,CN,1629769001,67,50.2441,127.4902,72.18,6.98
Sitka,40,US,1629769002,77,57.0531,-135.33,58.89,5.75
Cherskiy,10,RU,1629769002,33,68.75,161.3,55.72,3.8
Butaritari,5,KI,1629769003,74,3.0707,172.7902,82.74,11.97
Oblivskaya,42,RU,1629769003,94,48.5362,42.5014,59.59,7.23
Yondó,100,CO,1629769003,97,7.0062,-73.9097,75.29,0.67
College,90,US,1629769004,94,64.8569,-147.8028,57.52,0.0
Departamento de Maldonado,73,UY,1629769004,67,-34.6667,-54.9167,43.99,2.06
Verkhoshizhem'ye,100,RU,1629769004,73,58.011,49.1038,53.71,3.27
Cape Town,20,ZA,1629768963,89,-33.9258,18.4232,54.88,4.0
Corinth,0,GR,1629769005,52,37.9407,22.9573,78.49,3.96
Isiro,46,CD,1629769005,99,2.7739,27.616,64.2,2.26
Souillac,75,MU,1629769006,60,-20.5167,57.5167,70.18,11.5
Bengkulu,100,ID,1629769007,80,-3.8004,102.2655,79.2,5.03
Fortuna,1,US,1629768862,67,40.5982,-124.1573,63.93,4.0
Kawalu,73,ID,1629769007,80,-7.3817,108.2082,76.28,5.14
Rundu,57,NA,1629769007,29,-17.9333,19.7667,61.54,4.23
Evensk,79,RU,1629769008,78,61.95,159.2333,59.76,0.74
Saint-Philippe,54,RE,1629769008,77,-21.3585,55.7679,62.19,13.4
Namatanai,100,PG,1629769009,92,-3.6667,152.4333,75.97,12.73
Beringovskiy,100,RU,1629769009,89,63.05,179.3167,51.51,2.26
Taksimo,87,RU,1629769010,62,56.3444,114.8794,62.83,4.7
Aasiaat,100,GL,1629769010,90,68.7098,-52.8699,39.0,7.07
Nevesinje,85,BA,1629769011,74,43.2586,18.1133,63.46,6.78
Ambulu,34,ID,1629769012,58,-8.345,113.6058,81.88,5.75
Lebu,8,CL,1629769012,78,-37.6167,-73.65,44.33,10.27
Vao,99,NC,1629769012,68,-22.6667,167.4833,69.78,18.21
Castro,0,BR,1629768767,47,-24.7911,-50.0119,63.72,3.6
Provideniya,90,RU,1629769013,81,64.3833,-173.3,46.51,8.95
Oranjestad,20,AW,1629769013,78,12.524,-70.027,80.55,17.27
Manbij,0,SY,1629769014,81,36.5281,37.9549,75.97,14.47
Baikunthpur,100,IN,1629769015,83,23.25,82.55,77.63,4.97
Turinsk,85,RU,1629769015,53,58.0458,63.696,69.42,3.42
Bilibino,3,RU,1629769015,42,68.0546,166.4372,49.57,10.25
Ati,100,TD,1629769016,75,13.2154,18.3353,79.23,10.74
Mar del Plata,0,AR,1629769016,87,-38.0023,-57.5575,35.62,0.0
Port Alfred,0,ZA,1629769017,72,-33.5906,26.891,56.95,11.52
Mahina,40,PF,1629769017,69,-17.5065,-149.489,82.17,16.11
Acajutla,100,SV,1629769018,84,13.5928,-89.8275,78.8,6.02
Caranavi,98,BO,1629769018,58,-15.8167,-67.55,72.46,2.89
Shimoda,100,JP,1629769018,79,34.6667,138.95,82.76,9.19
Port-Cartier,100,CA,1629769019,90,50.0334,-66.8654,65.75,2.3
Shingū,100,JP,1629769019,60,33.7333,135.9833,85.19,11.99
Correntina,0,BR,1629769020,43,-13.3433,-44.6367,70.05,3.69
Sibolga,99,ID,1629769020,86,1.7427,98.7792,77.43,0.38
Porto Real,0,BR,1629769021,56,-22.4197,-44.2903,65.86,1.92
Najrān,100,SA,1629769021,28,17.4924,44.1277,83.05,3.31
Tuatapere,100,NZ,1629769021,62,-46.1333,167.6833,62.82,8.55
Somerset East,0,ZA,1629769022,41,-32.7217,25.588,50.95,4.16
Acandí,100,CO,1629769022,92,8.5063,-77.2778,77.13,4.25
Krasnosel'kup,19,RU,1629769023,67,65.7,82.4667,69.31,16.44
Belmonte,3,BR,1629769023,84,-15.8631,-38.8828,73.9,7.4
Upernavik,100,GL,1629769024,66,72.7868,-56.1549,47.08,5.5
Narsaq,20,GL,1629769024,62,60.9167,-46.05,53.82,3.91
Kaitangata,63,NZ,1629769025,56,-46.2817,169.8464,63.54,5.97
Lamont,0,US,1629768743,30,35.2597,-118.9143,93.83,6.76
Pisco,0,PE,1629769025,77,-13.7,-76.2167,63.01,12.66
Faya,43,SA,1629769026,30,18.3851,42.4509,69.91,4.81
São José da Coroa Grande,54,BR,1629769026,88,-8.8978,-35.1478,73.42,8.63
Bacabal,6,BR,1629769026,43,-4.2917,-44.7917,79.32,3.33
Mossamedes,100,AO,1629769027,69,-15.1961,12.1522,64.22,11.7
Tema,90,GH,1629769027,88,5.667,-0.0166,77.41,10.36
Saint-Augustin,100,CA,1629769027,70,51.226,-58.6502,71.94,4.54
Flin Flon,78,CA,1629769028,64,54.7682,-101.865,51.04,5.53
Atambua,11,ID,1629769028,48,-9.1061,124.8925,84.83,2.48
Kargasok,93,RU,1629769029,88,59.0556,80.8572,65.89,7.96
Chute-aux-Outardes,90,CA,1629769030,88,49.1168,-68.399,72.41,3.44
Kāmāreddi,92,IN,1629769030,84,18.3167,78.35,76.6,3.49
Dingle,100,PH,1629769030,86,10.9995,122.6711,78.37,0.6
Zabul Province,0,AF,1629769031,12,32.25,67.25,68.99,3.18
Kathmandu,75,NP,1629768751,100,27.7167,85.3167,70.02,2.3
Rome,75,US,1629769031,82,43.2128,-75.4557,74.95,0.0
Kiryat Gat,0,IL,1629769021,72,31.61,34.7642,77.4,1.52
Bereda,34,ES,1629769032,100,43.2686,-7.5406,62.35,6.76
Challakere,70,IN,1629769032,75,14.3167,76.65,75.15,10.4
Bambous Virieux,75,MU,1629769032,60,-20.3428,57.7575,70.05,11.5
Chui,100,UY,1629769033,76,-33.6971,-53.4616,51.71,4.59
Sioux Lookout,75,CA,1629769033,82,50.1001,-91.917,64.78,8.05
Cooma,90,AU,1629769033,100,-36.2333,149.1333,40.77,23.02
Krasnoborsk,96,RU,1629769034,97,61.5598,45.934,51.31,1.48
Mokhsogollokh,100,RU,1629769034,83,61.4681,128.9203,56.05,5.61
Kondinskoye,71,RU,1629769034,59,59.6481,67.41,70.14,5.79
Pangnirtung,100,CA,1629769035,90,66.1451,-65.7125,43.65,7.7
Yamada,100,JP,1629769035,76,39.4667,141.95,76.33,5.46
Lázaro Cárdenas,100,MX,1629769035,81,17.9583,-102.2,79.47,1.83
Wiwilí,100,NI,1629769036,91,13.6268,-85.8254,74.03,2.82
Kamalpur,99,IN,1629769036,91,24.2,91.8333,78.6,4.76
Lompoc,20,US,1629768773,76,34.6391,-120.4579,72.79,9.22
Lashio,100,MM,1629769037,99,22.9333,97.75,71.15,0.89
Saskylakh,100,RU,1629769037,84,71.9167,114.0833,48.33,10.02
Katobu,96,ID,1629769037,70,-4.9408,122.5276,82.78,4.74
Korla,0,CN,1629769038,14,41.7597,86.1469,79.72,4.68
Yumen,3,CN,1629769039,22,40.2833,97.2,67.12,14.76
Hobart,20,AU,1629769039,65,-42.8794,147.3294,52.27,5.01
Marabá,12,BR,1629769039,43,-5.3686,-49.1178,78.1,3.15
Bhandāra,100,IN,1629769040,84,21.1667,79.65,79.39,3.98
Vega de Alatorre,100,MX,1629769041,87,20.0333,-96.6333,77.83,6.82
Puerto Ayora,94,EC,1629769041,85,-0.7393,-90.3518,71.55,8.01
Haines Junction,98,CA,1629769042,27,60.7522,-137.5108,66.15,6.91
Megion,0,RU,1629769042,65,61.0296,76.1136,66.22,10.65
Coffs Harbour,40,AU,1629769042,42,-30.3,153.1333,66.16,17.27
Barletta,0,IT,1629769043,80,41.3118,16.2908,78.19,12.91
Marzuq,27,YE,1629769043,55,14.4,46.4667,76.78,4.61
Zhoucheng,2,CN,1629769043,67,35.9122,116.3117,78.08,6.42
Tekeli,32,KZ,1629769044,19,44.83,78.8239,73.9,2.1
Salaga,100,GH,1629769044,90,8.5508,-0.5188,74.32,1.45
Whitehorse,75,CA,1629768783,39,60.7161,-135.0538,65.17,9.22
Veselynove,31,UA,1629769045,45,47.3567,31.2349,57.52,5.73
Todos Santos,100,MX,1629769045,62,23.45,-110.2167,88.75,8.7
Kenora,90,CA,1629769046,100,49.8167,-94.4337,63.79,4.61
La Paz,13,BO,1629769046,56,-16.5,-68.15,46.38,8.05
Roebourne,0,AU,1629769046,23,-20.7833,117.1333,78.62,19.3
Kununurra,0,AU,1629768976,21,-15.7667,128.7333,87.85,22.1
Kruisfontein,0,ZA,1629769047,76,-34.0033,24.7314,49.05,8.77
Hadejia,83,NG,1629769047,57,12.4498,10.0444,79.65,6.78
Saint Anthony,1,US,1629769048,53,45.0205,-93.218,83.8,0.0
Yanggu,0,CN,1629769048,74,36.1106,115.7753,77.67,7.4
Puerto Colombia,86,CO,1629769048,74,10.9878,-74.9547,77.09,20.69
Fukuechō,75,JP,1629769049,94,32.6881,128.8419,82.76,18.41
Esim,98,GH,1629769049,92,4.8699,-2.2405,75.31,4.12
Padang,100,ID,1629768788,82,-0.9492,100.3543,78.73,2.33
Nurota,0,UZ,1629769050,21,40.5614,65.6886,79.72,7.18
Vaitape,7,PF,1629769009,77,-16.5167,-151.75,78.96,13.51
Tasiilaq,99,GL,1629769050,83,65.6145,-37.6368,50.16,5.93
Atar,53,MR,1629769051,44,20.5169,-13.0499,88.38,4.14
Dapdapan,100,PH,1629769051,84,11.4943,122.6314,80.24,1.86
Kushmurun,0,KZ,1629769052,47,52.4503,64.6311,70.75,6.17
Ca Mau,29,VN,1629769052,67,9.1769,105.15,85.75,8.52
Santa Cruz de Tenerife,90,ES,1629768911,86,28.4682,-16.2546,74.71,8.01
Inhambane,0,MZ,1629769053,91,-23.865,35.3833,65.5,4.79
Rawson,0,AR,1629769053,48,-43.3002,-65.1023,41.11,17.4
Aksu,73,CN,1629769054,29,41.1231,80.2644,79.16,4.76
Dali,100,CN,1629769054,91,25.7,100.1833,66.24,2.04
Santana do Livramento,99,BR,1629769055,61,-30.8908,-55.5328,53.15,17.9
New Glasgow,94,CA,1629769055,92,45.5834,-62.6486,70.92,9.75
Carbonia,0,IT,1629769055,56,39.1672,8.5222,72.55,7.92
Puerto Quijarro,0,BO,1629769056,33,-17.7833,-57.7667,78.93,2.17
Banda Aceh,100,ID,1629769056,77,5.5577,95.3222,81.84,11.63
Boende,12,CD,1629769057,97,-0.2167,20.8667,69.76,1.97
Zonalnaya Stantsiya,75,RU,1629769057,92,56.4269,85.0221,60.01,6.71
Katsuura,100,JP,1629769058,81,35.1333,140.3,84.24,7.36
Cap Malheureux,69,MU,1629769058,68,-19.9842,57.6142,70.29,4.0
Semnan,6,IR,1629769058,33,35.5729,53.3971,75.43,4.52
Saint George,1,US,1629769059,11,37.1041,-113.5841,97.39,8.05
Stromness,56,GB,1629769059,90,58.965,-3.296,55.65,5.01
São João da Barra,0,BR,1629769060,86,-21.6403,-41.0511,71.53,22.06
Terney,94,RU,1629769060,79,45.0503,136.6092,70.54,4.38
Ahipara,73,NZ,1629769061,71,-35.1667,173.1667,57.18,10.16
Sur,4,OM,1629769062,70,22.5667,59.5289,81.23,8.34
Ponta Delgada,40,PT,1629769062,88,37.7333,-25.6667,74.12,10.36
Lata,0,PT,1629769062,68,40.1629,-8.3327,63.01,2.68
Sept-Îles,20,CA,1629768907,89,50.2001,-66.3821,66.06,4.61
Baghdad,0,IQ,1629768904,30,33.3406,44.4009,85.91,6.91
Arbore,91,RO,1629769063,66,47.7333,25.9333,60.48,4.68
Omsukchan,78,RU,1629769063,72,62.5333,155.8,62.24,10.0
Dukat,88,RU,1629769064,72,62.55,155.55,61.02,8.57
Port Augusta,42,AU,1629769064,47,-32.5,137.7667,53.74,15.73
Suleja,93,NG,1629769064,92,9.1758,7.1808,71.46,2.24
Pimampiro,96,EC,1629769065,91,0.4,-77.9667,59.02,1.39
Abu Dhabi,0,AE,1629768999,55,24.4667,54.3667,93.31,5.75
Oistins,40,BB,1629769065,94,13.0667,-59.5333,78.89,14.97
Riviere-au-Renard,100,CA,1629769066,90,48.9957,-64.3971,71.89,8.84
Rio Bananal,6,BR,1629769066,94,-19.265,-40.3333,65.93,1.74
Yulara,100,AU,1629769066,33,-25.2406,130.9889,58.84,21.85
Tiksi,100,RU,1629769067,67,71.6872,128.8694,51.78,8.77
Kavaratti,95,IN,1629769067,76,10.5669,72.642,80.4,2.59
Avera,45,US,1629769067,57,33.194,-82.5271,81.28,3.62
Yangi Marg`ilon,0,UZ,1629769068,33,40.4272,71.7189,78.22,6.91
Ormara,19,PK,1629769068,85,25.2088,64.6357,79.09,14.61
Saldanha,0,ZA,1629769069,92,-33.0117,17.9442,48.25,4.88
Tateyama,100,JP,1629769069,82,34.9833,139.8667,82.67,6.76
Port-Gentil,100,GA,1629769070,83,-0.7193,8.7815,75.6,15.5
Saint-Joseph,29,RE,1629769070,75,-21.3667,55.6167,61.18,12.88
Hasaki,100,JP,1629769071,73,35.7333,140.8333,84.6,5.32
Constitución,1,CL,1629769071,79,-35.3333,-72.4167,45.52,3.4
Gamba,87,GA,1629769072,77,-2.65,10.0,74.3,8.21
Yeniseysk,78,RU,1629769072,73,58.4497,92.1703,60.82,1.97
Nyurba,100,RU,1629769073,56,63.2842,118.3319,60.85,4.52
Kirakira,19,SB,1629769073,70,-10.4544,161.9205,83.48,14.5
Nová Baňa,89,SK,1629769073,92,48.4231,18.6404,62.56,2.64
Zliten,0,LY,1629769074,67,32.4674,14.5687,77.36,2.17
Srednekolymsk,33,RU,1629769074,40,67.45,153.6833,53.15,5.01
Makakilo City,90,US,1629769075,84,21.3469,-158.0858,77.32,8.05
Urucará,14,BR,1629769075,56,-2.5364,-57.76,79.79,3.06
Chul'man,100,RU,1629769075,98,56.8479,124.9104,52.56,5.01
Isugod,100,PH,1629769076,79,9.3408,118.1196,82.09,7.87
Ilulissat,100,GL,1629769076,38,69.2167,-51.1,55.42,4.61
Mana,94,GF,1629769076,89,5.6592,-53.7767,77.99,11.16
Vanimo,99,PG,1629769077,68,-2.6741,141.3028,83.95,5.35
Bairiki Village,40,KI,1629769077,66,1.3292,172.9752,87.8,12.66
Nidadavole,31,IN,1629769078,82,16.9167,81.6667,82.71,2.28
Brae,78,GB,1629769078,96,60.3964,-1.353,51.71,6.2
Panguna,100,PG,1629769078,80,-6.3164,155.4848,77.47,3.58
Gamboula,95,CF,1629769079,92,4.1178,15.1393,69.49,2.46
Touros,8,BR,1629769079,81,-5.1989,-35.4608,76.1,14.65
Linguère,100,SN,1629769080,75,15.3953,-15.1193,81.52,6.62
Castaños,47,MX,1629769080,59,26.7833,-101.4167,82.96,12.28
Bhālki,26,IN,1629769080,78,18.0333,77.2167,77.0,3.42
Trincomalee,99,LK,1629769081,80,8.5711,81.2335,79.18,13.82
Maridi,100,SS,1629769081,97,4.9158,29.4742,64.78,1.45
Orocué,100,CO,1629769082,88,4.7912,-71.3354,77.14,6.69
Port Hardy,20,CA,1629769082,72,50.6996,-127.4199,60.98,9.22
Camacha,40,PT,1629769082,83,33.0833,-16.3333,72.36,12.66
Mahébourg,75,MU,1629769083,60,-20.4081,57.7,70.09,11.5
Kostyantynivka,3,UA,1629769083,56,48.5277,37.7069,61.83,3.91
Nichinan,100,JP,1629769084,78,31.6,131.3667,85.68,12.8
Nizwá,58,OM,1629769084,55,22.9333,57.5333,81.79,1.34
Manuk Mangkaw,69,PH,1629769085,74,4.8,119.85,81.82,6.13
Bubaque,49,GW,1629769085,82,11.2833,-15.8333,79.25,14.0
Tarrafal,37,CV,1629769086,83,15.2833,-23.7667,81.39,13.56
Khanbari,100,NP,1629769086,87,27.3747,87.2039,75.18,0.96
Alice Springs,85,AU,1629769087,33,-23.7,133.8833,54.95,21.85
Manaure,97,CO,1629769087,71,11.7751,-72.4445,82.94,18.81
Meulaboh,57,ID,1629769088,83,4.1363,96.1285,78.51,2.62
Swan Hill,1,AU,1629769088,38,-35.3378,143.5544,55.38,19.93
Ulladulla,100,AU,1629769089,94,-35.35,150.4667,49.77,20.98
Mandalgovi,100,MN,1629769089,87,45.7625,106.2708,46.4,28.5
Quatre Cocos,92,MU,1629769090,66,-20.2078,57.7625,69.91,18.05
Joaíma,48,BR,1629769090,82,-16.6542,-41.0306,67.48,3.11
Bonnyville,100,CA,1629769091,96,54.2668,-110.735,55.2,3.85
Arman',76,RU,1629769092,80,59.7,150.1667,63.05,6.67
Jumla,95,NP,1629769092,88,29.2747,82.1838,64.54,1.23
Rovenki,85,UA,1629769092,78,48.0833,39.3776,63.75,4.21
Pindiga,28,NG,1629769093,89,9.9833,10.9333,71.64,2.93
Katherine,75,AU,1629769093,57,-14.4667,132.2667,79.12,24.16
Cabatuan,100,PH,1629769094,85,10.8794,122.486,78.93,2.71
Garden City,40,US,1629769094,73,42.3256,-83.331,79.99,4.61
Fort Collins,1,US,1629768883,37,40.5853,-105.0844,88.05,1.01
Jalu,0,LY,1629769095,42,29.0331,21.5482,77.59,9.42
Lagoa,100,PT,1629769095,93,39.05,-27.9833,71.78,18.52
Bristol,90,US,1629769095,96,41.8334,-71.1662,73.78,4.0
Pacific Grove,90,US,1629769095,83,36.6177,-121.9166,71.56,7.0
Huaraz,94,PE,1629769096,84,-9.5333,-77.5333,54.3,1.16
Ostrovnoy,100,RU,1629769096,77,68.0531,39.5131,43.23,13.44
Puerto del Rosario,95,ES,1629769097,73,28.5004,-13.8627,73.15,16.11
Husavik,100,IS,1629769097,97,66.0449,-17.3389,67.91,2.51
Palāsa,54,IN,1629769097,76,18.7667,84.4167,83.19,6.73
Olinda,75,BR,1629769098,73,-8.0089,-34.8553,76.73,12.66
Karratha,0,AU,1629769098,23,-20.7377,116.8463,78.8,19.35
Lüderitz,0,NA,1629769099,65,-26.6481,15.1594,55.6,12.15
Bosaso,59,SO,1629769099,50,11.2842,49.1816,88.3,23.13
North Bend,1,US,1629769100,67,43.4065,-124.2243,64.92,28.77
Mnogovershinnyy,100,RU,1629769100,61,53.9353,139.9242,71.31,3.96
Codrington,97,AU,1629769100,72,-38.2667,141.9667,51.87,12.48
Rio Grande,100,BR,1629768812,76,-32.035,-52.0986,52.95,14.65
Chazuta,12,PE,1629769101,66,-6.5742,-76.1367,81.45,0.76
Jiazi,100,CN,1629769102,72,22.8779,116.067,85.17,7.47
Mehrān,0,IR,1629769102,10,33.1222,46.1646,87.28,6.2
Saravan,35,AM,1629769103,56,39.7196,45.6483,60.55,6.24
Eirunepé,56,BR,1629769103,58,-6.6603,-69.8736,80.29,1.23
Valle Hermoso,23,MX,1629769104,64,25.6667,-97.8333,87.84,12.01
Dryden,90,CA,1629769104,82,49.7833,-92.7503,64.69,10.36
Banfora,85,BF,1629769105,84,10.6333,-4.7667,74.43,3.51
Elblag,6,PL,1629768886,84,54.1522,19.4088,60.55,11.16
Seoul,75,KR,1629768818,83,37.5683,126.9778,80.11,12.66
Iqaluit,75,CA,1629769106,81,63.7506,-68.5145,44.33,3.44
Neiafu,20,TO,1629769106,57,-18.65,-173.9833,77.68,8.05
Zambezi,5,ZM,1629769106,47,-13.5432,23.1047,64.63,5.57
Oyama,100,JP,1629769107,58,36.3,139.8,88.66,4.5
Andenes,75,NO,1629769107,81,69.3143,16.1194,48.18,6.91
Aloleng,99,PH,1629769107,71,16.1307,119.7824,85.01,8.72
San Quintín,0,MX,1629769011,76,30.4833,-115.95,69.64,11.72
Bacolod City,100,PH,1629768969,79,10.6667,122.95,80.42,2.48
Serik,0,TR,1629769108,35,36.9169,31.0989,80.85,8.28
Conakry,99,GN,1629769108,82,9.538,-13.6773,78.49,6.08
Nhulunbuy,75,AU,1629769109,62,-12.2333,136.7667,86.61,17.27
Yarim,100,YE,1629769109,68,14.298,44.3779,56.77,9.31
Loutrá,0,GR,1629769110,74,39.0569,26.545,72.36,10.47
Kaeo,72,NZ,1629769110,71,-35.1,173.7833,62.33,11.65
Natá,100,PA,1629769111,87,8.3333,-80.5167,77.47,2.75
Porosozero,100,RU,1629769111,94,62.7191,32.727,45.46,12.91
Kloulklubed,98,PW,1629769112,70,7.0419,134.2556,84.7,6.04
Kon Tum,96,VN,1629769112,81,14.35,108.0,78.19,1.92
Vilyuysk,100,RU,1629769113,53,63.7553,121.6247,60.28,7.61
Villablino,0,ES,1629769113,59,42.9393,-6.3194,63.39,4.09
Jardim,35,BR,1629769114,35,-21.4803,-56.1381,78.44,4.97
Lusaka,38,ZM,1629769114,66,-15.4067,28.2871,63.12,9.19
La Ronge,90,CA,1629769114,58,55.1001,-105.2842,57.45,5.75
Sechura,57,PE,1629769115,80,-5.5569,-80.8222,64.96,15.35
Corumbá,0,BR,1629769115,34,-19.0092,-57.6533,78.91,1.57
São Raimundo das Mangabeiras,64,BR,1629769116,37,-7.0219,-45.4811,81.64,2.86
Slave Lake,75,CA,1629769117,67,55.2834,-114.769,57.18,4.61
Road Town,99,VG,1629769050,74,18.4167,-64.6167,83.19,15.52
Homer,90,US,1629769117,84,59.6425,-151.5483,60.69,5.75
Cabo San Lucas,100,MX,1629768883,75,22.8909,-109.9124,88.95,8.52
Sarh,20,TD,1629769118,94,9.1429,18.3923,76.91,0.0
Hirado,95,JP,1629769118,88,33.3597,129.5531,81.75,29.51
Birjand,0,IR,1629769118,22,32.8663,59.2211,66.67,4.61
Omboué,76,GA,1629769119,79,-1.5746,9.2618,74.41,8.7
Goderich,10,CA,1629768992,88,43.7501,-81.7165,73.9,2.3
Khovd,0,MN,1629769119,44,48.0056,91.6419,57.25,0.6
Kostanay,0,KZ,1629769120,77,53.1667,63.5833,62.89,2.24
Dwārka,26,IN,1629769120,78,22.2394,68.9678,81.93,14.79
Nakama,89,JP,1629769121,71,33.8167,130.7,82.4,18.54
Celestún,98,MX,1629769121,84,20.8667,-90.4,78.76,9.15
Russell,40,US,1629769122,87,32.3502,-85.1999,83.43,5.75
Alofi,75,NU,1629769122,83,-19.0595,-169.9187,75.09,8.05
Muriwai Beach,82,NZ,1629769123,56,-36.8167,174.45,60.87,8.93
Abhā,0,SA,1629769123,28,18.2164,42.5053,69.62,0.0
Tingo María,39,PE,1629769123,72,-9.2895,-76.0088,74.57,1.86
Fairbanks,90,US,1629768904,94,64.8378,-147.7164,57.54,3.44
Waipawa,18,NZ,1629769124,67,-41.4122,175.5153,54.45,18.1
Eureka,2,US,1629768963,69,40.8021,-124.1637,64.2,3.0
Mattru,96,SL,1629769125,97,7.6244,-11.8332,72.73,0.49
Sobolevo,100,RU,1629769125,61,54.4299,31.8996,55.76,2.26
San Miguel,40,SV,1629769125,84,13.4833,-88.1833,83.86,2.3
Apodi,79,BR,1629769126,59,-5.6642,-37.7989,79.79,13.85
Poum,68,NC,1629769126,65,-20.2333,164.0167,73.44,19.82
Chicama,61,PE,1629769126,85,-7.8447,-79.1469,61.34,6.11
Carapeguá,100,PY,1629769127,30,-25.8,-57.2333,74.86,5.23
Koungou,90,YT,1629769127,88,-12.7336,45.2042,73.11,6.91
Takoradze,100,GH,1629769127,93,4.8845,-1.7554,75.02,4.97
Broome,90,US,1629769128,92,42.2506,-75.833,75.58,1.01
Kasongo-Lunda,90,CD,1629769129,72,-6.4667,16.8167,73.31,1.57
Watsa,62,CD,1629769129,98,3.0372,29.5355,60.42,1.74
Gari,100,RU,1629769130,72,59.4307,62.3497,67.55,1.68
Adrar,37,MR,1629769130,36,20.5022,-10.0711,86.97,7.4
Concordia,100,AR,1629769044,47,-31.393,-58.0209,54.77,14.29
Krasne,100,UA,1629769131,86,49.9145,24.6134,63.75,8.19
Santo Antônio do Içá,55,BR,1629769131,83,-3.1022,-67.9397,76.57,3.22
Kuala Terengganu,40,MY,1629769131,94,5.3302,103.1408,76.95,0.0
Kangaatsiaq,100,GL,1629769132,89,68.3065,-53.4641,40.8,8.46
Cravo Norte,100,CO,1629769132,73,6.3017,-70.2041,80.94,2.06
Sirte,0,LY,1629769132,69,31.2089,16.5887,79.93,7.0
Rurrenabaque,42,BO,1629769133,50,-14.4413,-67.5278,79.83,2.35
Havøysund,100,NO,1629769133,87,70.9963,24.6622,45.48,17.94
Bambanglipuro,100,ID,1629769133,72,-7.95,110.2833,79.66,13.65
Palmer,90,US,1629769102,86,42.1584,-72.3287,73.15,5.75
Si Satchanalai,100,TH,1629769134,85,17.5169,99.7598,82.18,3.38
Velyka Oleksandrivka,8,UA,1629769134,45,47.3197,33.3037,63.9,7.23
Jagannāthpur,100,IN,1629769135,76,22.2333,85.65,79.83,6.62
Kalabo,0,ZM,1629769135,31,-14.97,22.6814,63.72,4.88
São Félix do Xingu,68,BR,1629769136,41,-6.6447,-51.995,78.42,2.04
Novozaimka,96,RU,1629769136,42,56.4857,66.9241,74.34,8.21
Kondagaon,95,IN,1629769136,86,19.6,81.6667,75.24,4.92
Ipixuna,98,BR,1629769137,85,-1.7625,-48.8043,78.75,5.14
Yuci,0,CN,1629769137,63,37.6803,112.7319,65.95,2.24
Moose Factory,20,CA,1629769138,82,51.2585,-80.6094,59.0,9.22
Suez,0,EG,1629769138,74,29.9737,32.5263,74.75,5.41
Calatayud,71,ES,1629769139,65,41.3535,-1.6432,73.98,2.19
Puerto Escondido,100,MX,1629769139,82,15.85,-97.0667,80.69,4.92
Toshām,98,IN,1629769139,72,28.8833,75.9167,85.86,5.23
Los Llanos de Aridane,90,ES,1629769140,93,28.6585,-17.9182,71.35,10.36
Tura,93,IN,1629769140,92,25.5198,90.2201,78.17,4.43
Ust'-Ilimsk,100,RU,1629769140,76,58.0006,102.6619,56.12,4.25
Portales,100,US,1629769141,58,34.1862,-103.3344,83.39,14.9
Port Macquarie,96,AU,1629769141,49,-31.4333,152.9167,57.16,13.42
Botwood,93,CA,1629769142,73,49.1499,-55.3482,71.08,8.34
Grand Gaube,76,MU,1629769142,68,-20.0064,57.6608,70.2,4.0
Graaff-Reinet,0,ZA,1629768860,31,-32.2522,24.5308,50.59,0.43
Salalah,90,OM,1629768850,83,17.0151,54.0924,80.69,5.75
Ilhabela,0,BR,1629769143,53,-23.7781,-45.3581,73.81,4.16
Ilovlya,100,RU,1629769144,90,49.3033,43.9796,61.9,12.39
Ahar,4,IR,1629769144,55,38.4774,47.0699,66.24,3.78
Santa Cruz de la Sierra,7,BO,1629769145,65,-17.8,-63.1667,81.86,14.97
St. George's,75,GD,1629769145,94,12.0564,-61.7485,78.48,5.75
Isangel,40,VU,1629768851,50,-19.55,169.2667,78.91,11.5
Mwinilunga,9,ZM,1629769146,64,-11.7358,24.4293,62.74,3.29
Leh,10,IN,1629769146,54,34.1667,77.5833,63.25,4.74
Horta,100,PT,1629769146,93,38.5333,-28.6333,71.67,9.51
Almeirim,71,BR,1629769147,72,-1.5233,-52.5817,77.04,3.76
Karlovo,0,BG,1629769147,62,42.6333,24.8,67.06,1.05
Mokolo,76,CM,1629769148,83,10.7398,13.8019,71.17,1.77
Ayagoz,0,KZ,1629769148,32,47.9714,80.4392,62.62,14.18
Cadillac,1,US,1629769149,77,44.2519,-85.4012,78.12,0.0
Waiouru,1,NZ,1629769149,41,-39.4833,175.6667,52.0,5.01
Aleksandrov Gay,17,RU,1629769150,49,50.147,48.5704,74.62,5.53
Santo Tomas,100,PH,1629769150,69,14.1079,121.1414,85.57,3.6
Wani,100,IN,1629769151,78,20.0667,78.95,80.44,2.75
Bandarbeyla,63,SO,1629769151,80,9.4942,50.8122,76.35,23.24
Mutum,0,BR,1629769152,74,-19.8,-41.4383,65.21,3.76
San Policarpo,100,PH,1629769152,77,12.1791,125.5072,82.06,1.86
Kostomuksha,100,RU,1629769153,88,64.571,30.5767,42.51,7.67
Boyolangu,84,ID,1629769153,66,-8.1181,111.8935,80.31,11.59
Nuristan,0,AF,1629769153,51,35.3,70.8333,49.33,7.52
Uray,81,RU,1629769154,67,60.1247,64.7758,69.42,0.98
Cayenne,0,GF,1629769154,83,4.9333,-52.3333,81.09,4.0
Encheng,100,CN,1629769155,71,22.1839,112.3026,86.32,5.53
Tyup,100,KG,1629769156,45,42.7276,78.3648,67.48,3.13
Kumul,0,CN,1629769156,13,42.8,93.45,78.49,2.71
Dicabisagan,53,PH,1629769156,64,17.0818,122.4157,87.55,5.68
Comodoro Rivadavia,20,AR,1629769157,56,-45.8667,-67.5,37.26,13.8
Doha,7,QA,1629769157,77,25.2867,51.5333,91.71,2.3
Iquitos,20,PE,1629769157,89,-3.7481,-73.2472,78.84,1.14
Christiana,98,ZA,1629769158,41,-27.914,25.1611,62.6,6.96
Spanish Town,20,JM,1629769158,82,17.9911,-76.9574,83.82,4.61
Paro,100,BT,1629769159,88,27.4305,89.4133,67.03,2.1
Aykhal,100,RU,1629769159,67,66.0,111.5,50.92,6.69
Upata,100,VE,1629769160,95,8.0086,-62.3989,71.47,3.11
Noyabrsk,49,RU,1629769160,69,63.1994,75.4507,69.22,11.39
Longkou,28,CN,1629769160,81,37.6508,120.3286,76.69,18.28
Waverley,0,ZA,1629769161,70,-25.7023,28.2591,62.4,4.61
Sault Ste. Marie,1,CA,1629769001,73,46.5168,-84.3333,71.89,5.75
Lisala,95,CD,1629769161,97,2.15,21.5167,68.61,1.28
Tsarychanka,31,UA,1629769162,46,48.937,34.4786,59.99,5.66
Nelson,53,NZ,1629769162,71,-41.2833,173.2833,60.8,3.62
Soyo,55,AO,1629769162,87,-6.1349,12.3689,72.52,10.74
Langsa,90,ID,1629768864,87,4.4683,97.9683,78.35,2.84
Aguilar de la Frontera,95,ES,1629769163,71,37.5143,-4.6554,77.4,4.16
San Cristobal,100,VE,1629769164,97,7.7669,-72.225,73.58,1.99
Kahului,90,US,1629769164,85,20.8947,-156.47,80.62,16.11
Bonavista,81,CA,1629769165,79,48.6499,-53.1147,67.12,15.39
Shambu,100,ET,1629769165,97,9.5667,37.1,48.72,1.57
Laguna,1,US,1629769165,43,38.421,-121.4238,88.61,4.0
Vila Velha,20,BR,1629769166,83,-20.3297,-40.2925,71.55,9.22
Zhangaözen,63,KZ,1629769166,21,43.3,52.8,81.25,10.13
Laas,9,IT,1629769167,92,46.6166,10.7002,54.01,5.28
Beira,40,MZ,1629768882,100,-19.8436,34.8389,66.29,3.44
Kieta,100,PG,1629769167,81,-6.2167,155.6333,82.49,8.75
Babushkin,59,RU,1629769168,69,51.7122,105.8647,55.53,15.03
Sambava,100,MG,1629769168,77,-14.2667,50.1667,69.42,10.36
Ampanihy,0,MG,1629769169,90,-24.7,44.75,61.79,3.62
Rincon,75,US,1629769169,98,32.296,-81.2354,80.13,4.61
Mahrīz,6,IR,1629769007,21,31.5917,54.4318,77.5,0.6
Qaqortoq,21,GL,1629769170,73,60.7167,-46.0333,54.1,0.56
Hong Kong,100,HK,1629768977,87,22.2855,114.1577,87.85,6.55
Shelburne,76,CA,1629769170,89,44.0787,-80.2041,73.27,6.64
Clyde River,100,CA,1629769171,95,70.4692,-68.5914,35.01,12.53
Dawlatabad,0,AF,1629769171,19,36.4141,64.9053,76.98,2.55
Mareeba,1,AU,1629769171,58,-17.0,145.4333,82.44,5.39
Pinega,100,RU,1629769172,83,64.7001,43.3936,45.55,4.97
Half Moon Bay,1,US,1629769172,79,37.4636,-122.4286,76.8,8.05
Kinloss,75,GB,1629769173,96,57.6349,-3.5701,57.2,4.61
Mount Gambier,40,AU,1629769166,76,-37.8333,140.7667,53.51,12.66
Belaya,70,UA,1629769174,61,49.029,25.7706,63.14,10.22
Canutama,10,BR,1629769174,35,-6.5339,-64.3831,79.54,2.46
Namie,100,JP,1629769175,81,37.4833,141.0,84.72,4.32
Morwell,100,AU,1629769175,76,-38.2333,146.4,50.68,4.36
Makokou,98,GA,1629769176,95,0.5738,12.8642,70.54,3.44
Lillooet,100,CA,1629769176,73,50.6856,-121.942,59.72,2.46
Vrangel',100,RU,1629769177,76,42.7297,133.0839,71.8,13.78
Inuvik,75,CA,1629769177,49,68.3499,-133.7218,59.86,1.14
Pevek,6,RU,1629769178,71,69.7008,170.3133,36.99,5.37
Labytnangi,87,RU,1629769178,74,66.6572,66.4183,53.29,20.02
Coquimbo,0,CL,1629769179,76,-29.9533,-71.3436,51.53,5.75
Matara,81,LK,1629769179,81,5.9485,80.5353,78.8,6.33
Verkhozim,100,RU,1629769180,92,52.7122,45.418,57.24,12.95
Adwa,100,ET,1629769180,87,14.1646,38.8955,59.32,2.28
Lárdos,1,GR,1629769180,81,36.0942,28.0157,78.62,11.77
Malanville,99,BJ,1629769181,80,11.8685,3.3899,75.04,5.84
Oruro,0,BO,1629769181,18,-17.9833,-67.15,45.19,2.57
Bogotol,100,RU,1629769182,66,56.2078,89.5342,57.49,4.0
Walvis Bay,19,NA,1629769182,93,-22.9575,14.5053,55.09,6.91
Cidreira,72,BR,1629769182,84,-30.1811,-50.2056,60.66,13.02
Helong,100,CN,1629769183,63,42.5397,128.9972,74.26,6.04
Hamilton,1,US,1629769183,80,39.1834,-84.5333,83.03,0.0
Fonte Boa,46,BR,1629769183,73,-2.4959,-66.2662,76.8,3.94
Kuna,1,US,1629769097,17,43.4918,-116.4201,81.68,1.01
Ust-Tsilma,100,RU,1629769184,90,65.441,52.1498,46.98,4.38
Bisert',88,RU,1629769184,58,56.8617,59.0523,65.73,4.0
San Ramon,1,US,1629768979,66,37.7799,-121.978,79.27,1.99
Zeya,100,RU,1629769185,97,53.75,127.2667,60.35,6.38
Niterói,0,BR,1629769185,60,-22.8833,-43.1036,80.22,5.75
Natal,75,BR,1629768941,94,-5.795,-35.2094,75.85,5.75
Deputatsky,100,RU,1629769186,71,69.3,139.9,50.61,4.38
Assiniboia,50,CA,1629769186,43,49.6334,-105.9845,76.91,6.91
Batagay,100,RU,1629769187,55,67.6333,134.6333,61.05,2.26
Alyangula,40,AU,1629769187,47,-13.8483,136.4192,80.47,12.66
Alta Floresta,69,BR,1629769188,33,-9.8756,-56.0861,81.12,2.68
Sola,80,VU,1629769188,62,-13.8833,167.55,77.83,18.86
Kailua,90,US,1629769188,78,21.4022,-157.7394,78.78,14.0
Kirensk,100,RU,1629769189,76,57.7853,108.1119,55.36,2.57
North Myrtle Beach,1,US,1629769189,88,33.816,-78.68,82.02,8.05
Chake Chake,2,TZ,1629769190,85,-5.2459,39.7666,72.32,7.54
Dzilam González,53,MX,1629769190,87,21.2833,-88.9333,78.26,6.64
Colares,2,PT,1629769192,77,38.7992,-9.4469,68.29,6.13
São Filipe,100,CV,1629769192,79,14.8961,-24.4956,79.18,9.91
Port Moresby,75,PG,1629769192,62,-9.4431,147.1797,87.22,5.75
Liberty,1,US,1629769193,97,31.8335,-81.5004,79.12,1.99
Abu Samrah,0,SY,1629769193,75,35.3029,37.1841,72.32,9.37
Dois Vizinhos,42,BR,1629769194,56,-25.7336,-53.0572,66.92,3.91
Storforshei,100,NO,1629769195,95,66.4043,14.5233,44.65,1.01
Port Hedland,0,AU,1629769196,14,-20.3167,118.5667,78.85,18.41
Flinders,100,AU,1629769196,84,-34.5833,150.8552,52.18,8.99
Thinadhoo,29,MV,1629769196,76,0.5333,72.9333,81.39,10.51
Bilma,30,NE,1629769197,34,18.6853,12.9164,88.83,7.78
Mayor Pablo Lagerenza,34,PY,1629769197,37,-19.9309,-60.7718,82.69,5.26
Antofagasta,66,CL,1629769197,84,-23.65,-70.4,56.48,6.04
Orem,1,US,1629769198,32,40.2969,-111.6946,87.66,3.44
